stop_id,stop_code,stop_name,stop_lat,stop_lon,zone_id,location_type,parent_station,wheelchair_boarding
100,100,"Saint-Martin-le-Vinoux, La Gomma",45.21528,5.71941,,,LAGOMMA,1
1000,1000,"Miribel-Lanchâtre, Bayanne",44.97996,5.62235,,,BAYANNE,2
1001,1001,"Miribel-Lanchâtre, Miribel",44.9747,5.62087,,,MIRIBEL,2
1002,1002,"Miribel-Lanchâtre, Miribel",44.97466,5.621,,,MIRIBEL,2
101,101,"Eybens, La Châtelière",45.16219,5.74912,,,CHATELIE,1
1012,1012,"Saint-Martin-le-Vinoux, Col de Clémencières",45.2342,5.72564,,,COLCLEME,2
1019,1019,"Varces-Allières-et-Risset, Notre-Dame de Lachal",45.08732,5.69015,,,NODAMLAC,2
102,102,"Eybens, La Châtelière",45.16217,5.74903,,,CHATELIE,1
1020,1020,"Varces-Allières-et-Risset, Notre-Dame de Lachal",45.08736,5.69011,,,NODAMLAC,2
1021,1021,"Varces-Allières-et-Risset, Berliognière",45.08984,5.69258,,,BERLIOGN,2
1022,1022,"Varces-Allières-et-Risset, Berliognière",45.08998,5.6925,,,BERLIOGN,2
1023,1023,"Meylan, Grésivaudan",45.20969,5.7612,,,GRESIVAU,1
1024,1024,"Varces-Allières-et-Risset, Balzac",45.08729,5.69415,,,BALZAZ,2
1027,1027,"Saint-Égrève, Pont de Vence",45.23038,5.6835,,,PTVENCE,1
1028,1028,"Saint-Égrève, Visancourt",45.23296,5.68577,,,VISANCOU,1
1029,1029,"Saint-Égrève, Muret",45.22573,5.68641,,,MURET,1
103,103,"Eybens, Les Javaux",45.15112,5.74959,,,JAVAUX,1
1032,1032,"Varces-Allières-et-Risset, Balzac",45.08728,5.69421,,,BALZAZ,2
1034,1034,"Varces-Allières-et-Risset, Rozatière",45.08711,5.70253,,,ROZATIER,2
1035,1035,"Échirolles, Antoine Polotti",45.14834,5.7232,,,POLOTTI,1
1037,1037,"Gières, Universités - Biologie",45.19195,5.77525,,,BIOLOGIE,1
1039,1039,"Fontaine, Curie - Vercors",45.19243,5.6934,,,RUEPAIX,1
104,104,"Eybens, Odyssée",45.15336,5.74848,,,ODYSSEE,1
1040,1040,"Varces-Allières-et-Risset, Rozatière",45.08706,5.70241,,,ROZATIER,2
1041,1041,"Varces-Allières-et-Risset, Fontagneux",45.08729,5.70779,,,FONTAGNE,2
1042,1042,"Varces-Allières-et-Risset, Fontagneux",45.08729,5.70786,,,FONTAGNE,2
1043,1043,"Varces-Allières-et-Risset, Malissolles",45.08385,5.70458,,,MALISSOL,2
1044,1044,"Varces-Allières-et-Risset, Malissolles",45.08396,5.7047,,,MALISSOL,2
1045,1045,"Gières, Le Japin",45.18782,5.80781,,,LEJAPIN,1
1046,1046,"Saint-Martin-d'Hères, Les Alloves",45.17204,5.76518,,,ALLOVES,1
1047,1047,"Échirolles, Monmousseau",45.15327,5.7115,,,MONMOUSS,1
1049,1049,"Grenoble, Gustave Rivet",45.1812,5.72806,,,GUSTRIVE,1
105,105,"Eybens, Val d'Eybens",45.15927,5.74557,,,VALEYBEN,1
1050,1050,"Grenoble, Massenet",45.16799,5.72124,,,MASSENET,1
1051,1051,"Échirolles, Monmousseau",45.15355,5.71188,,,MONMOUSS,1
1053,1053,"Varces-Allières-et-Risset, Le Gros Chêne",45.07834,5.70205,,,GROSCHEN,2
1056,1056,"Varces-Allières-et-Risset, Le Gros Chêne",45.07832,5.7021,,,GROSCHEN,2
1057,1057,"Vif, Le Refuge",45.07466,5.69955,,,LEREFUGE,2
1058,1058,"Vif, Le Refuge",45.07462,5.69959,,,LEREFUGE,2
1059,1059,"Vif, Rue de la Sacristie",45.07061,5.69518,,,SACRISTI,2
106,106,"Saint-Martin-le-Vinoux, Hôtel Bellevue",45.21153,5.71775,,,HOTELBEL,1
1060,1060,"Saint-Martin-d'Hères, Zella Mehlis",45.16707,5.75353,,,ZELLAMEL,1
1061,1061,"Eybens, Collège des Saules",45.16143,5.74306,,,COLLSAUL,1
1062,1062,"Vif, Rue de la Sacristie",45.07081,5.69538,,,SACRISTI,2
1063,1063,"Vif, Ecole Reymure",45.06914,5.69332,,,ECOLEREY,2
1064,1064,"Vif, Ecole Reymure",45.06908,5.69334,,,ECOLEREY,2
1065,1065,"Vif, La Plaine",45.06663,5.69198,,,PLAINE,2
1067,1067,"Grenoble, Bon Pasteur",45.17877,5.75075,,,BONPASTE,1
107,107,"Domène, L'Oratoire",45.19819,5.83412,,,ORATOIRE,1
1070,1070,"Grenoble, Mutualité",45.19046,5.73662,,,MUTUALIT,1
1071,1071,"Meylan, Granier",45.21027,5.78454,,,GRANIER,1
1073,1073,"Vif, La Plaine",45.06686,5.69213,,,PLAINE,2
1074,1074,"Saint-Martin-d'Hères, Houille Blanche",45.17795,5.7517,,,HOUILLEB,1
1076,1076,"Saint-Égrève, Eglise",45.24016,5.68385,,,EGLISESE,1
1080,1080,"Domène, René Cassin",45.2045,5.84416,,,RENECASS,1
1081,1081,"Domène, René Cassin",45.20424,5.84373,,,RENECASS,1
1083,1083,"Vif, Jacobins",45.06458,5.69127,,,JACOBINS,2
1085,1085,"Vif, Jacobins",45.06442,5.69131,,,JACOBINS,2
1086,1086,"Échirolles, Antoine Polotti",45.1486,5.72251,,,POLOTTI,1
1087,1087,"Échirolles, Fernand Pelloutier",45.15075,5.71561,,,PELLOUTI,1
1088,1088,"Échirolles, Musée Géo Charles",45.14879,5.70172,,,MUSGEOCH,1
1089,1089,"Vif, Le Petit Brion",45.06228,5.69011,,,PETIBRIO,2
1090,1090,"Eybens, Champ Fila",45.15627,5.75497,,,CHAMPFIL,1
1091,1091,"Eybens, Les Ruires-Boétie",45.14932,5.74122,,,RUIRES,1
1092,1092,"Eybens, Odyssée",45.15247,5.74848,,,ODYSSEE,1
1093,1093,"Eybens, Champ Fila",45.15627,5.75505,,,CHAMPFIL,1
1094,1094,"Poisat, Centre Socio-Culturel",45.15941,5.76011,,,CENSOCIO,1
1095,1095,"Échirolles, Fernand Pelloutier",45.15084,5.71482,,,PELLOUTI,1
1097,1097,"Bresson, Bresson Mairie",45.13775,5.74816,,,BRESSON,1
11,11,"Meylan, Malacher",45.21128,5.78724,,,MALACHER,1
110,110,"Poisat, Cimetière Intercommunal",45.15752,5.76412,,,PREMOL,1
1100,1100,"Vif, Le Petit Brion",45.06225,5.69018,,,PETIBRIO,2
1101,1101,"Vif, Mas Garni",45.06056,5.68779,,,MASGARNI,2
1104,1104,"Échirolles, Commanderie",45.14367,5.73288,,,COMMANDE,2
1106,1106,"Veurey-Voroize, Les Marronniers",45.27636,5.61105,,,MARRONNI,2
1107,1107,"Veurey-Voroize, Les Marronniers",45.27594,5.61,,,MARRONNI,2
1109,1109,"Fontaine, La Sure",45.20228,5.68619,,,LASURE,2
1110,1110,"Seyssinet-Pariset, Les Iles",45.1841,5.69716,,,LESILES,1
1111,1111,"Seyssinet-Pariset, Les Iles",45.18417,5.69713,,,LESILES,1
1112,1112,"Meylan, Les Béalières",45.21146,5.79145,,,BEALIERE,1
1113,1113,"Meylan, Lycée du Grésivaudan",45.21334,5.78103,,,LYCGRESI,1
1114,1114,"Vif, Mas Garni",45.06078,5.68819,,,MASGARNI,2
1118,1118,"Saint-Martin-d'Hères, Le Carina",45.16238,5.76305,,,CARINA,1
1119,1119,"Saint-Martin-d'Hères, Le Carina",45.16235,5.76287,,,CARINA,1
1120,1120,"Grenoble, Abbé Grégoire",45.18389,5.71174,,,ABBEGREG,1
1121,1121,"Sassenage, Chamechaude",45.20511,5.68348,,,CHAMECHA,2
1122,1122,"Fontaine, Chamechaude",45.20504,5.6835,,,CHAMECHA,2
1124,1124,"Claix, La Chièze",45.12151,5.68143,,,CHIEZE,1
1125,1125,"Claix, La Ronzy",45.12083,5.67593,,,RONZY,1
1126,1126,"Fontaine, La Sure",45.20263,5.686,,,LASURE,2
1127,1127,"Vif, Allée des Granges",45.05794,5.68474,,,ALEGRANG,2
1128,1128,"Fontaine, Saint-Eynard",45.20113,5.69021,,,STEYNARD,1
1129,1129,"Fontaine, Saint-Eynard",45.2014,5.6899,,,STEYNARD,1
1130,1130,"Vif, Allée des Granges",45.05785,5.68478,,,ALEGRANG,2
1131,1131,"Vif, Z.A. des Speyres",45.05691,5.68171,,,ZASPEYRE,2
1133,1133,"Vif, Z.A. des Speyres",45.0569,5.68184,,,ZASPEYRE,2
1134,1134,"La Tronche, Vercors",45.20065,5.75103,,,VERCORS,1
1138,1138,"Grenoble, Marceau - Jardin des Vallons",45.18245,5.72217,,,MARCEAU,1
1139,1139,"Grenoble, Marceau - Jardin des Vallons",45.18263,5.72195,,,MARCEAU,1
1145,1145,"Grenoble, Veyret",45.19479,5.7248,,,VEYRET,2
1148,1148,"Proveysieux, Col de la Charmette",45.32189,5.74005,,,CHARME,1
1149,1149,"Seyssinet-Pariset, Seyssinet Village",45.17052,5.68071,,,SNETVILA,2
115,115,"Meylan, Haut-Meylan",45.2183,5.77919,,,HTMEYLAN,1
1152,1152,"Grenoble, Estacade",45.18593,5.71744,,,CHORCOND,1
1153,1153,"Grenoble, Estacade",45.18588,5.71725,,,CHORCOND,1
116,116,"Saint-Martin-le-Vinoux, Hôtel Bellevue",45.21178,5.71773,,,HOTELBEL,1
1160,1160,"Domène, Les Vernes",45.20736,5.83392,,,VERNES,1
1161,1161,"Domène, Les Vernes",45.20714,5.83398,,,VERNES,1
1165,1165,"Poisat, Centre Socio-Culturel",45.15899,5.75955,,,CENSOCIO,1
1166,1166,"Échirolles, Le Village",45.14133,5.72057,,,VILLAGE,1
1167,1167,"Corenc, Montfleury",45.21186,5.75637,,,MONTFLEU,1
1170,1170,"Corenc, Croix de Montfleury",45.20879,5.74934,,,CXMONTFL,1
1173,1173,"Meylan, Malacher",45.21122,5.78722,,,MALACHER,1
1177,1177,"Saint-Égrève, Pont de Vence",45.23012,5.68332,,,PTVENCE,1
118,118,"Venon, La Serralière",45.17283,5.79806,,,LASERRAL,1
1181,1181,"Veurey-Voroize, Les Echalières",45.26824,5.61944,,,ECHALIER,1
1182,1182,"Gières, Université – Biologie",45.19195,5.77474,,,BIOLOGIE,1
1185,1185,"Échirolles, Denis Papin",45.13887,5.71323,,,DENPAPIN,1
1186,1186,"Échirolles, Denis Papin",45.13825,5.71271,,,DENPAPIN,1
1187,1187,"Échirolles, Auguste Ferrier",45.14483,5.70962,,,AUGUFERR,1
1188,1188,"Eybens, Val d'Eybens",45.15905,5.74558,,,VALEYBEN,1
1193,1193,"Échirolles, Gay Lussac",45.13582,5.71243,,,GAYLUSSA,1
1195,1195,"Saint-Égrève, Cuvilleux",45.23469,5.6874,,,CUVILLEU,1
12,12,"La Tronche, La Carronnerie Basse",45.20094,5.75814,,,CARONBAS,1
120,120,"Venon, La Faurie",45.17542,5.79467,,,LAFAURIE,1
1202,1202,"Grenoble, Xavier Jouvin",45.1956,5.73009,,,XAVJOUVI,1
1204,1204,"Saint-Martin-d'Hères, Le Marais",45.16358,5.75128,,,LEMARAIS,2
1205,1205,"Le Pont-de-Claix, L'Etoile",45.13791,5.70227,,,LETOILE,1
1206,1206,"Champ-sur-Drac, Stade Perrouault",45.07546,5.72739,,,STADEPER,2
1209,1209,"Échirolles, Bayard",45.1464,5.70511,,,BAYARD,1
120TOISE,GEN120TOISE,"Le Pont-de-Claix, 120 Toises",45.13625,5.69496,,1,,1
1210,1210,"Le Pont-de-Claix, L'Etoile",45.13786,5.70205,,,LETOILE,1
1211,1211,"Le Pont-de-Claix, Clos Dominique",45.13547,5.70127,,,CLOSDOMI,1
1212,1212,"Le Pont-de-Claix, Marcelline",45.12615,5.69832,,,MARCELLI,1
1214,1214,"Le Pont-de-Claix, Marcelline",45.12549,5.69793,,,MARCELLI,1
1215,1215,"Échirolles, Bayard",45.14565,5.70465,,,BAYARD,1
1216,1216,"Échirolles, Quinzaine",45.15166,5.70689,,,QUINZAIN,1
1218,1218,"Le Pont-de-Claix, L'Amphi",45.13035,5.69975,,,LAMPHI,1
1219,1219,"Le Pont-de-Claix, L'Amphi",45.12972,5.69932,,,LAMPHI,1
1224,1224,"Échirolles, Quinzaine",45.15149,5.70664,,,QUINZAIN,1
1225,1225,"Claix, Pompidou",45.11993,5.69255,,,POMPIDOU,1
1226,1226,"Échirolles, Bayard",45.14603,5.70431,,,BAYARD,1
1227,1227,"Le Pont-de-Claix, Clos Dominique",45.13581,5.70154,,,CLOSDOMI,1
1230,1230,"Échirolles, Colonel Manhès",45.14647,5.70177,,,COLMANHE,1
1232,1232,"Gières, Roseraie",45.17901,5.781,,,ROSERAIE,1
1236,1236,"Eybens, Odyssée",45.1529,5.74902,,,ODYSSEE,1
1238,1238,"Échirolles, Paul Langevin",45.14346,5.72313,,,LANGEVIN,1
1239,1239,"Échirolles, Paul Langevin",45.14327,5.72275,,,LANGEVIN,1
1241,1241,"Corenc, Le Cèdre",45.20726,5.75533,,,CEDRE,1
1242,1242,"La Tronche, Bastille",45.20444,5.73759,,,BASTILLE,1
1244,1244,"Fontaine, Rue des Alpes",45.19832,5.68145,,,RUEALPES,2
1245,1245,"Poisat, Robespierre",45.1598,5.75735,,,ROBESPIE,1
1248,1248,"Proveysieux, Le Bazeau",45.26581,5.69975,,,BAZE,2
1249,1249,"Meylan, Jules Flandrin",45.20877,5.75903,,,JFLANDRI,1
125,125,"Saint-Martin-le-Vinoux, Les Combes",45.20963,5.718,,,LESCOMBE,1
1251,1251,"Seyssins, La Baume",45.16051,5.68996,,,LABAUME,1
1252,1252,"Veurey-Voroize, La Rive",45.26982,5.61825,,,VEUREYRI,1
1253,1253,"Veurey-Voroize, La Rive",45.26943,5.61816,,,VEUREYRI,1
1258,1258,"Seyssinet-Pariset, Beau Site",45.17591,5.69696,,,BEAUSITE,1
1259,1259,"Meylan, Le Cèdre",45.2078,5.75673,,,CEDRE,1
1260,1260,"Corenc, Jules Flandrin",45.20829,5.7578,,,JFLANDRI,1
1261,1261,"Eybens, Les Ruires-Boétie",45.14936,5.74115,,,RUIRES,1
1262,1262,"Corenc, Grésivaudan",45.20997,5.76177,,,GRESIVAU,1
1263,1263,"Seyssinet-Pariset, Seyssinet Village",45.17051,5.68077,,,SNETVILA,1
1264,1264,"Échirolles, Paul Héroult",45.1478,5.71286,,,PHEROULT,1
1265,1265,"Saint-Martin-d'Hères, Bibliothèques Universitaires",45.19169,5.77029,,,BIBLIUNI,1
1266,1266,"Claix, Pompidou",45.11986,5.69267,,,POMPIDOU,1
1269,1269,"Bresson, Les Vignes",45.13808,5.74566,,,VIGNES,1
1270,1270,"Échirolles, Auguste Ferrier",45.14491,5.70975,,,AUGUFERR,1
1272,1272,"Grenoble, Clos d'Or",45.16946,5.72255,,,CLOSDOR,1
1273,1273,"Grenoble, Paul Cocat",45.17226,5.74478,,,PAULCOCA,1
1277,1277,"Saint-Martin-d'Hères, Champ Roman",45.18434,5.76769,,,CHAMPROM,1
1278,1278,"Domène, Domène Mairie",45.20137,5.83815,,,DOMENEMA,1
128,128,"Saint-Martin-le-Vinoux, Les Combes",45.20972,5.71803,,,LESCOMBE,1
1285,1285,"Saint-Martin-d'Hères, Champ Roman",45.18389,5.76816,,,CHAMPROM,1
1286,1286,"Saint-Martin-d'Hères, Coli",45.18028,5.76626,,,COLI,1
1287,1287,"Saint-Martin-d'Hères, Coli",45.17992,5.76542,,,COLI,1
1288,1288,"Varces-Allières-et-Risset, Stendhal",45.0871,5.68587,,,STEND,2
1289,1289,"Varces-Allières-et-Risset, Stendhal",45.08685,5.68503,,,STEND,2
1292,1292,"Saint-Égrève, Karben",45.24299,5.67118,,,KARBEN,1
1293,1293,"Saint-Égrève, Karben",45.24291,5.67138,,,KARBEN,1
1294,1294,"Saint-Égrève, Cap 38",45.24007,5.66683,,,CAP38,1
1295,1295,"Saint-Égrève, La Biolle - Gare",45.23522,5.66953,,,BIOLLE,1
1296,1296,"Saint-Égrève, La Biolle - Gare",45.23439,5.67022,,,BIOLLE,2
1297,1297,"Saint-Égrève, Saint Egrève Gare",45.23527,5.6715,,,STEGVGAR,1
1298,1298,"Saint-Égrève, Belledonne",45.22268,5.684,,,BELLEDON,1
1299,1299,"Saint-Égrève, Belledonne",45.22272,5.68403,,,BELLEDON,1
1303,1303,"Saint-Égrève, Les Glairaux",45.21853,5.67991,,,GLAIRAUX,1
1304,1304,"Saint-Égrève, Les Glairaux",45.21946,5.67963,,,GLAIRAUX,1
131,131,"Gières, Edelweiss",45.18108,5.78844,,,EDELWEIS,1
1310,1310,"Le Pont-de-Claix, Gendarmerie",45.14003,5.69852,,,LALUIRE,1
1316,1316,"Eybens, Général de Gaulle",45.16113,5.74449,,,DEGAULLE,1
1317,1317,"Eybens, Général de Gaulle",45.1624,5.74402,,,DEGAULLE,1
1318,1318,"Eybens, Le Bourg",45.14791,5.75117,,,LEBOURG,1
1319,1319,"Eybens, Le Bourg",45.14781,5.75116,,,LEBOURG,1
1327,1327,"Grenoble, Le Rabot",45.19505,5.72342,,,RABOT,1
1329,1329,"Saint-Égrève, Fiancey - Prédieu",45.22352,5.68752,,,PREDIEU,1
133,133,"Saint-Martin-le-Vinoux, Les Fauvettes",45.20521,5.71826,,,LESFAUVE,1
1330,1330,"Saint-Égrève, Fiancey - Prédieu",45.22339,5.68704,,,PREDIEU,1
134,134,"Fontaine, Gérard Philipe",45.19647,5.67717,,,GERARPHI,1
1343,1343,"Meylan, Busserolles",45.20888,5.79755,,,BUSSEROL,2
135,135,"Saint-Martin-le-Vinoux, Les Fauvettes",45.20658,5.7175,,,LESFAUVE,1
1359,1359,"Échirolles, Guy Mocquet",45.14548,5.72585,,,GUYMOCQU,1
1360,1360,"Échirolles, Guy Mocquet",45.14511,5.72519,,,GUYMOCQU,1
1361,1361,"Sassenage, Le Gua",45.20969,5.66443,,,LEGUA,1
1362,1362,"Sassenage, L'Ovalie",45.20967,5.66695,,,OVALIE,1
1365,1365,"Sassenage, Le Gua",45.20971,5.66437,,,LEGUA,1
137,137,"Fontaine, Jules Guesde",45.1979,5.68869,,,JULESGUE,1
1371,1371,"Saint-Martin-d'Uriage, Le Maupas",45.15926,5.81904,,,MAUPA,2
1372,1372,"Saint-Martin-d'Uriage, Le Maupas",45.15886,5.81939,,,MAUPA,2
1376,1376,"Saint-Égrève, Saint Egrève Gare",45.23579,5.67155,,,STEGVGAR,1
1379,1379,"Le Pont-de-Claix, Irène Joliot-Curie",45.12742,5.69856,,,IRENEJOL,1
1380,1380,"Le Pont-de-Claix, Irène Joliot-Curie",45.128,5.69892,,,IRENEJOL,1
139,139,"Fontaine, Rue Pasteur",45.19421,5.69473,,,RUEPASTE,1
1399,1399,"Sassenage, Complexe Sportif",45.21142,5.67271,,,COMPLEXE,1
1400,1400,"Sassenage, François Blumet",45.20966,5.677,,,FRBLUMET,2
1403,1403,"Grenoble, Martyrs - Résistance",45.2081,5.69661,,,MARESIST,1
1404,1404,"Grenoble, Martyrs - Résistance",45.20844,5.69644,,,MARESIST,1
1406,1406,"Sassenage, François Blumet",45.20994,5.67673,,,FRBLUMET,2
1407,1407,"Sassenage, Complexe Sportif",45.21136,5.67252,,,COMPLEXE,1
141,141,"Saint-Martin-le-Vinoux, Place du Village",45.20365,5.71693,,,SMVINOUX,1
142,142,"Saint-Martin-le-Vinoux, Place du Village",45.20364,5.7167,,,SMVINOUX,1
1441,1441,"La Tronche, Sablons",45.19751,5.75366,,,SABLONS,1
1442,1442,"La Tronche, Sablons",45.19678,5.75299,,,SABLONS,1
1446,1446,"Grenoble, Flaubert - Clos d'Or",45.1707,5.72722,,,FLAUCLOS,1
1447,1447,"Grenoble, Stalingrad-Alliés",45.17188,5.72396,,,STALALLI,1
1448,1448,"Grenoble, Marché d'Intérêt National",45.17354,5.71805,,,MAINNATI,1
1449,1449,"Grenoble, Alliés",45.17471,5.7143,,,ALLIES,1
1451,1451,"Grenoble, Rosa Parks",45.17497,5.70521,,,RHINDANU,1
1452,1452,"Grenoble, Vallier - Catane",45.17968,5.70546,,,VALLCATA,1
1453,1453,"Grenoble, Vallier - Catane",45.17967,5.7053,,,VALLCATA,1
1454,1454,"Grenoble, Rosa Parks",45.17511,5.70511,,,RHINDANU,1
1455,1455,"Grenoble, Alliés",45.17445,5.71408,,,ALLIES,1
1456,1456,"Grenoble, Marché d'Intérêt National",45.17342,5.71808,,,MAINNATI,1
1457,1457,"Grenoble, Stalingrad-Alliés",45.17153,5.72482,,,STALALLI,1
1458,1458,"Grenoble, Flaubert - Clos d'Or",45.17032,5.72808,,,FLAUCLOS,1
1467,1467,"Saint-Martin-le-Vinoux, Saint-Martin-le-Vinoux Hôtel de Ville",45.20826,5.70685,,,MAIRIESM,1
147,147,"Fontaine, Saveuil",45.19246,5.69614,,,SAVEUIL,1
1472,1472,"Le Gua, Les Saillants",45.02463,5.6458,,,SAILLANT,2
1473,1473,"Le Gua, Les Saillants",45.02451,5.64571,,,SAILLANT,2
1474,1474,"Vif, Le Pont de Genevrey",45.02792,5.65124,,,PONTGENE,2
1475,1475,"Vif, Le Pont de Genevrey",45.02852,5.65171,,,PONTGENE,2
1476,1476,"Vif, L'Usine Nord",45.02988,5.65278,,,USINENOR,2
1477,1477,"Vif, L'Usine Nord",45.03,5.65281,,,USINENOR,2
1478,1478,"Vif, Le Rif",45.03258,5.65578,,,LERIF,1
1479,1479,"Vif, Le Rif",45.0323,5.65546,,,LERIF,1
148,148,"Fontaine, Pont du Vercors",45.19242,5.69961,,,PTVERCOR,1
1480,1480,"Vif, La Grange",45.03916,5.66118,,,GRANGE,2
1481,1481,"Vif, La Grange",45.03933,5.66127,,,GRANGE,2
1482,1482,"Vif, Le Chalet",45.04355,5.66449,,,CHALET,2
1483,1483,"Vif, Le Chalet",45.04333,5.6644,,,CHALET,2
1484,1484,"Vif, La Cime du Bourg",45.04825,5.66746,,,CIMEBOUR,2
1485,1485,"Vif, La Cime du Bourg",45.04812,5.66739,,,CIMEBOUR,2
1486,1486,"Vif, Rivalta",45.05308,5.6766,,,VIFGEND,1
1487,1487,"Vif, Rivalta",45.05301,5.67655,,,VIFGEND,2
1488,1488,"Vif, Vif Mairie",45.05602,5.66847,,,VIFMAIRI,1
1489,1489,"Vif, Vif Mairie",45.05583,5.669,,,VIFMAIRI,1
149,149,"Saint-Martin-le-Vinoux, Ripaillère",45.22685,5.72071,,,RIPAILLE,1
1490,1490,"Vif, Les Garcins",45.06461,5.67052,,,GARCINS,2
1491,1491,"Vif, Les Garcins",45.06315,5.66934,,,GARCINS,2
1492,1492,"Varces-Allières-et-Risset, Pélissière",45.07039,5.67505,,,PELISIER,2
1493,1493,"Varces-Allières-et-Risset, Pélissière",45.07057,5.67506,,,PELISIER,2
1496,1496,"Saint-Paul-de-Varces, Saint-Paul-de-Varces Place",45.07167,5.6426,,,SPAULMAI,2
1497,1497,"Saint-Paul-de-Varces, La Croix",45.07055,5.64494,,,CROIX,2
1498,1498,"Saint-Paul-de-Varces, La Croix",45.0705,5.64492,,,CROIX,2
1499,1499,"Saint-Paul-de-Varces, La Garde",45.07049,5.65062,,,GARDE,2
15,15,"Meylan, Granier",45.21024,5.78405,,,GRANIER,1
150,150,"Fontaine, Charmettes",45.1974,5.69355,,,CHARMETT,1
1500,1500,"Saint-Paul-de-Varces, La Garde",45.07042,5.65059,,,GARDE,2
1501,1501,"Saint-Paul-de-Varces, La Bascule",45.07181,5.65496,,,BASCULE,2
1502,1502,"Saint-Paul-de-Varces, La Bascule",45.07174,5.65502,,,BASCULE,2
1503,1503,"Saint-Paul-de-Varces, Le Poulat",45.07444,5.66002,,,POULAT,2
1504,1504,"Saint-Paul-de-Varces, Le Poulat",45.07439,5.66012,,,POULAT,2
1505,1505,"Saint-Paul-de-Varces, Le Meinget",45.07973,5.66297,,,MEINGET,2
1506,1506,"Saint-Paul-de-Varces, Le Meinget",45.07922,5.66282,,,MEINGET,2
151,151,"Fontaine, Charmettes",45.19786,5.69305,,,CHARMETT,1
152,152,"Fontaine, Curie - Vercors",45.19181,5.69499,,,CURIVERC,1
1531,1531,"Murianette, La Briot",45.19328,5.82041,,,BRIOT,1
1532,1532,"Murianette, La Briot",45.19299,5.81948,,,BRIOT,1
154,154,"Fontanil-Cornillon, Rafour",45.24948,5.66712,,,RAFOUR,1
1544,1544,"Meylan, Norbert Ségard",45.20903,5.79525,,,NORBSEGA,2
1546,1546,"Meylan, Norbert Ségard",45.20928,5.79453,,,NORBSEGA,2
1548,1548,"Saint-Égrève, Rochepleine",45.24435,5.67492,,,ROCHEPLE,1
1549,1549,"Saint-Égrève, Rochepleine",45.24459,5.67517,,,ROCHEPLE,1
1550,1550,"Saint-Martin-d'Hères, Champ Roman",45.18453,5.76746,,,CHAMPROM,1
1557,1557,"Grenoble, Grand'place",45.15924,5.73249,,,GRDPLACE,1
1558,1558,"Grenoble, Grand'place",45.1589,5.73205,,,GRDPLACE,1
156,156,"Saint-Martin-le-Vinoux, Ripaillère",45.22682,5.72078,,,RIPAILLE,1
1560,1560,"Échirolles, Les Glières",45.14962,5.71167,,,GLIERES,2
1561,1561,"Échirolles, Les Glières",45.1497,5.7116,,,GLIERES,2
1563,1563,"Grenoble, Flandrin - Valmy",45.18649,5.74435,,,VALMY,1
1564,1564,"Grenoble, Flandrin - Valmy",45.18656,5.74436,,,VALMY,1
1565,1565,"Gières, Place de la République",45.18207,5.79269,,,PLREPUBL,1
1566,1566,"Gières, Place de la République",45.18209,5.79257,,,PLREPUBL,1
1568,1568,"Grenoble, Grand'place",45.15889,5.73182,,,GRDPLACE,1
157,157,"Noyarey, Le Ruisset",45.24964,5.63166,,,RUISSET,1
1570,1570,"Grenoble, Grand'place",45.15923,5.73196,,,GRDPLACE,1
1574,1574,"Saint-Égrève, Cap des H'",45.21732,5.68127,,,CAPDESH,2
1575,1575,"Eybens, Le Verderet",45.14694,5.75428,,,VERDERET,1
1577,1577,"Eybens, Le Verderet",45.14697,5.75434,,,VERDERET,1
1578,1578,"Eybens, Maisons Neuves",45.16518,5.74269,,,MAISNEUV,1
1579,1579,"Eybens, Maisons Neuves",45.16491,5.74252,,,MAISNEUV,1
158,158,"Saint-Martin-le-Vinoux, Gatinet",45.22494,5.71908,,,LEGATINE,1
1582,1582,"La Tronche, La Tronche Hôpital",45.20076,5.74217,,,TRONCHOP,1
1584,1584,"Eybens, Maisons Neuves",45.16475,5.74232,,,MAISNEUV,1
1589,1589,"Corenc, Croix de Montfleury",45.20883,5.74926,,,CXMONTFL,1
159,159,"Noyarey, Bascule",45.24291,5.63206,,,NOYARBAS,1
1590,1590,"Grenoble, Chorier - Saint-Bruno",45.18592,5.71403,,,STBRUNNC,1
1591,1591,"Sassenage, L'Ovalie",45.20976,5.66693,,,OVALIE,1
1598,1598,"Sassenage, Maladière",45.20763,5.68023,,,MALADIER,2
1599,1599,"Veurey-Voroize, Châtelard",45.27353,5.60481,,,CHATELAR,1
16,16,"Meylan, Meylan Mairie",45.20941,5.77926,,,MEYLMAIR,1
160,160,"Noyarey, Chaulnes",45.23642,5.63803,,,CHAULNES,1
1603,1603,"Corenc, Le Cèdre",45.20793,5.75527,,,CEDRE,2
1604,1604,"Corenc, Le Cèdre",45.20783,5.75552,,,CEDRE,1
1605,1605,"Meylan, Croix de Cibeins",45.226,5.7842,,,CXCIBENS,2
1606,1606,"Meylan, Croix de Cibeins",45.22566,5.78461,,,CXCIBENS,2
1608,1608,"Claix, Val d'Allières",45.1069,5.66532,,,VALALLIE,2
161,161,"Noyarey, Praparis - Les Roses",45.23201,5.64523,,,PRAPAROS,1
1611,1611,"Fontaine, La Poya",45.19727,5.6722,,,LAPOYA,1
1612,1612,"Fontaine, La Poya",45.19708,5.67257,,,LAPOYA,1
1613,1613,"Fontaine, La Poya",45.1972,5.67203,,,LAPOYA,1
1614,1614,"Saint-Égrève, Cap des H'",45.21705,5.68147,,,CAPDESH,1
1617,1617,"Grenoble, Verlaine",45.1621,5.71605,,,VERLAINE,1
1618,1618,"Grenoble, Verlaine",45.16237,5.71617,,,VERLAINE,1
162,162,"Saint-Martin-le-Vinoux, Gatinet",45.2249,5.71914,,,LEGATINE,1
1623,1623,"Eybens, L'Iliade",45.14744,5.74621,,,ILIADE,1
1624,1624,"Eybens, L'Iliade",45.14667,5.74481,,,ILIADE,1
1630,1630,"Grenoble, Grenoble Hôtel de Ville",45.18743,5.73751,,,GREHOTEL,1
1631,1631,"Grenoble, Grenoble Hôtel de Ville",45.18754,5.73736,,,GREHOTEL,1
1632,1632,"Sassenage, Chamechaude",45.20558,5.68331,,,CHAMECHA,2
1633,1633,"La Tronche, Carronnerie - Ile d'Amour",45.20116,5.7588,,,CARONRIE,1
1636,1636,"Meylan, Plaine Fleurie",45.20331,5.76211,,,PLAINEFL,1
1637,1637,"Meylan, Faculté de Pharmacie",45.21185,5.77457,,,FACPHARM,1
1638,1638,"Meylan, Faculté de Pharmacie",45.21148,5.77387,,,FACPHARM,1
1639,1639,"Meylan, La Revirée",45.20744,5.76805,,,REVIREE,1
1641,1641,"Meylan, Lycée du Grésivaudan",45.2134,5.78085,,,LYCGRESI,1
1642,1642,"Meylan, La Détourbe",45.22276,5.79264,,,DETOURBE,2
1643,1643,"Meylan, La Détourbe",45.22318,5.79315,,,DETOURBE,2
1645,1645,"Grenoble, Raymond Chanas",45.15942,5.73771,,,RAYCHANA,1
1646,1646,"Grenoble, Raymond Chanas",45.15968,5.73822,,,RAYCHANA,1
1651,1651,"Seyssinet-Pariset, Cimetière",45.16967,5.68346,,,CIMESEYP,1
1652,1652,"Seyssinet-Pariset, Percevalière",45.17016,5.68682,,,PERCEVAL,1
1654,1654,"Seyssinet-Pariset, Seyssinet-Pariset Hôtel de Ville",45.18078,5.69708,,,SEYHDV,1
1655,1655,"Seyssins, Grand Pré - Centre Sud",45.17084,5.69456,,,CENTRESU,1
1656,1656,"Fontaine, Louis Maisonnat",45.18912,5.69409,,,MAISONNA,1
1659,1659,"Fontaine, Louis Maisonnat",45.18906,5.69444,,,MAISONNA,1
1660,1660,"Seyssinet-Pariset, Seyssinet-Pariset Hôtel de Ville",45.18109,5.69707,,,SEYHDV,1
1661,1661,"Seyssinet-Pariset, Grand Pré - Centre Sud",45.17095,5.69462,,,CENTRESU,1
1662,1662,"Seyssinet-Pariset, Percevalière",45.17027,5.6865,,,PERCEVAL,1
1665,1665,"Fontaine, Ancienne Mairie",45.19298,5.67786,,,ANCIEMAI,1
1666,1666,"Fontaine, Ancienne Mairie",45.19272,5.67806,,,ANCIEMAI,1
1667,1667,"Fontaine, Jean Prévost",45.18999,5.68237,,,JEANPREV,1
1668,1668,"Fontaine, Jean Prévost",45.18955,5.68276,,,JEANPREV,1
1669,1669,"Fontaine, Karl Marx",45.18675,5.68707,,,KARLMARX,1
1670,1670,"Fontaine, Karl Marx",45.18652,5.68729,,,KARLMARX,1
1672,1672,"Seyssinet-Pariset, Bergès - Vercors",45.18424,5.6919,,,BERGVERC,1
168,168,"Saint-Martin-le-Vinoux, Conrad Kilian",45.20651,5.70884,,,CONRADKI,1
1682,1682,"Fontaine, Fontaine Hôtel de Ville - La Source",45.19235,5.68761,,,FONTAHDV,1
1683,1683,"Fontaine, Fontaine Hôtel de Ville - La Source",45.19212,5.68793,,,FONTAHDV,1
1686,1686,"Fontaine, Place du Marché Cachin",45.19589,5.69065,,,PLACMARC,1
1689,1689,"Saint-Martin-d'Hères, Neyrpic - Belledonne",45.18587,5.75758,,,NEYRBELL,1
169,169,"Saint-Martin-le-Vinoux, Conrad Kilian",45.20649,5.70878,,,CONRADKI,1
1690,1690,"Saint-Martin-d'Hères, Neyrpic - Belledonne",45.18591,5.75743,,,NEYRBELL,1
1691,1691,"Saint-Martin-le-Vinoux, Louis Gagnière",45.21484,5.68574,,,GAGNIERE,2
1692,1692,"Vif, Uriol",45.06067,5.66866,,,URIOL,1
1693,1693,"Vif, Uriol",45.06063,5.66856,,,URIOL,2
1694,1694,"Varces-Allières-et-Risset, Chambord",45.08501,5.66718,,,CHAMBORD,2
1695,1695,"Varces-Allières-et-Risset, Chambord",45.08518,5.66714,,,CHAMBORD,2
1696,1696,"Grenoble, Chavant",45.18502,5.73233,,,CHAVANT,1
1698,1698,"Grenoble, Chavant",45.18482,5.73245,,,CHAVANT,1
16AOUT44,GEN16AOUT44,"Saint-Martin-le-Vinoux, Résistance",45.20341,5.71433,,1,,1
17,17,"Meylan, Piscine des Buclos",45.20883,5.77503,,,PISBUCLO,1
1732,1732,"Échirolles, Drac",45.14938,5.69417,,,DRAC2,1
1733,1733,"Échirolles, Drac",45.14895,5.69397,,,DRAC2,1
1734,1734,"Échirolles, Comboire",45.14583,5.69082,,,COMBOIRE,1
1737,1737,"Seyssins, Hameau des Chaumières",45.15464,5.68953,,,CHAUMIER,1
1738,1738,"Seyssins, Le Prisme",45.16632,5.69038,,,PRISME,1
1739,1739,"Seyssins, Le Prisme",45.16639,5.69055,,,PRISME,1
174,174,"Saint-Égrève, Eglise",45.23999,5.68407,,,EGLISESE,1
1740,1740,"Seyssins, Henri Rey",45.14861,5.67807,,,HENRIREY,2
1741,1741,"Vaulnaveys-le-Haut, La Tuilerie",45.13594,5.8241,,,LATUILE,2
1742,1742,"Claix, La Croix Rolland",45.12942,5.67122,,,CRXROLLA,2
1744,1744,"Claix, La Croix Rolland",45.1292,5.67128,,,CRXROLLA,2
1746,1746,"Seyssins, Henri Rey",45.14876,5.67824,,,HENRIREY,2
1747,1747,"Seyssins, Hameau des Chaumières",45.1547,5.68938,,,CHAUMIER,1
1749,1749,"Seyssins, Le Prisme",45.16636,5.69037,,,PRISME,1
1750,1750,"Claix, Col de Comboire",45.14002,5.67321,,,COLCOMBO,1
1751,1751,"Claix, Col de Comboire",45.14019,5.67315,,,COLCOMBO,1
1755,1755,"Seyssins, Parc François Mitterrand",45.16281,5.68532,,,PFMITTER,1
1756,1756,"Seyssins, Parc François Mitterrand",45.16287,5.6853,,,PFMITTER,1
1757,1757,"Seyssins, L'Agneau",45.1613,5.68295,,,LAGNEAU,1
1758,1758,"Seyssins, Beauvoir",45.15899,5.68325,,,BEAUVOIR,2
176,176,"Saint-Égrève, La Monta",45.23787,5.68891,,,LAMONTA,1
1765,1765,"Grenoble, Driant",45.18259,5.73409,,,DRIANT,1
1766,1766,"Grenoble, Driant",45.18229,5.7341,,,DRIANT,1
177,177,"Saint-Martin-le-Vinoux, La Rivoire",45.22001,5.71508,,,LARIVOIR,1
1770,1770,"Domène, Coubertin",45.20004,5.83528,,,COUBERTI,1
1771,1771,"Domène, Coubertin",45.20003,5.83537,,,COUBERTI,1
1772,1772,"Seyssinet-Pariset, Tuilerie",45.16904,5.69208,,,TUILERIE,1
1773,1773,"Seyssins, Tuilerie",45.16906,5.69215,,,TUILERIE,1
1779,1779,"Seyssinet-Pariset, Aristide Bergès",45.18507,5.69455,,,ARBERGES,1
1780,1780,"Seyssinet-Pariset, Aristide Bergès",45.18551,5.69465,,,ARBERGES,1
1783,1783,"Grenoble, André Argouges",45.17592,5.74404,,,ARGOUGES,1
1784,1784,"Grenoble, André Argouges",45.17506,5.74475,,,ARGOUGES,1
1785,1785,"Sassenage, Maladière",45.20788,5.67946,,,MALADIER,2
1789,1789,"Sassenage, Château de Sassenage",45.21229,5.66176,,,CHATSASS,1
1790,1790,"Sassenage, Château de Sassenage",45.21224,5.66167,,,CHATSASS,1
1794,1794,"Grenoble, Grand'place",45.15923,5.73219,,,GRDPLACE,1
18,18,"Meylan, Le Brêt",45.20598,5.77184,,,LEBRET,1
180,180,"Sassenage, Praparis Usine",45.22925,5.6497,,,PRAPARIS,1
181,181,"Sassenage, La Rollandière",45.21502,5.66112,,,ROLLANDI,1
1836,1836,"Veurey-Voroize, Veurey Mairie",45.27311,5.61282,,,VEUREYMA,1
1839,1839,"Claix, Pont Rouge",45.1186,5.69331,,,PTROUGE,1
184,184,"Saint-Martin-le-Vinoux, La Rivoire",45.21994,5.71515,,,LARIVOIR,1
1840,1840,"Claix, Pont Rouge",45.11858,5.69319,,,PTROUGE,1
1841,1841,"Claix, Pont Rouge",45.11832,5.69254,,,PTROUGE,1
1842,1842,"Le Pont-de-Claix, Pont-de-Claix Mairie",45.12345,5.69775,,,PTCLXMAI,1
1843,1843,"Le Pont-de-Claix, Pont-de-Claix Mairie",45.12288,5.6977,,,PTCLXMAI,1
1850,1850,"Saint-Martin-d'Hères, Etienne Grappe",45.17221,5.75773,,,ETIEGRAP,1
1851,1851,"Saint-Martin-d'Hères, Etienne Grappe",45.17211,5.75752,,,ETIEGRAP,1
1852,1852,"Saint-Martin-d'Hères, Rocheplane",45.1783,5.76236,,,ROCHEPLA,1
1853,1853,"Saint-Martin-d'Hères, Rocheplane",45.17826,5.76231,,,ROCHEPLA,1
1858,1858,"Meylan, Busserolles",45.20881,5.79757,,,BUSSEROL,2
1859,1859,"Sassenage, Vieux donjon",45.21137,5.64968,,,VIEUXDON,2
1860,1860,"Sassenage, Vieux donjon",45.21138,5.64977,,,VIEUXDON,2
1861,1861,"Seyssins, Ancienne Gare",45.15978,5.68178,,,ANCIGARE,2
1862,1862,"Seyssins, L'Agneau",45.16196,5.68278,,,LAGNEAU,1
1863,1863,"Saint-Martin-d'Hères, Porte du Grésivaudan",45.18252,5.77665,,,PORTGRES,1
1864,1864,"Saint-Martin-d'Hères, Porte du Grésivaudan",45.18232,5.77697,,,PORTGRES,1
1871,1871,"Claix, Claix Mairie",45.12025,5.67247,,,CLAIXMAI,1
1872,1872,"Claix, Claix Mairie",45.12026,5.67327,,,CLAIXMAI,1
1875,1875,"Claix, Charrières",45.11599,5.68888,,,CHARRIER,2
1876,1876,"Claix, Charrières",45.11599,5.68896,,,CHARRIER,2
1877,1877,"Claix, Saint-Michel",45.11203,5.68452,,,SAINTMIC,2
1878,1878,"Claix, Saint-Michel",45.1122,5.68471,,,SAINTMIC,2
1879,1879,"Claix, Les Bauches",45.11083,5.67865,,,BAUCHES,2
188,188,"Seyssinet-Pariset, La Plaine",45.17259,5.69689,,,LAPLAINE,1
1880,1880,"Varces-Allières-et-Risset, Les Bauches",45.11052,5.67808,,,BAUCHES,2
1890,1890,"Claix, Malhivert",45.13254,5.66688,,,MALHIVER,2
1891,1891,"Claix, Malhivert",45.13207,5.66662,,,MALHIVER,2
1892,1892,"Claix, Chemin de l'Abbé",45.13521,5.66842,,,CHEABBE,2
1893,1893,"Claix, Chemin de l'Abbé",45.13524,5.66835,,,CHEABBE,2
1895,1895,"Claix, Cossey",45.13886,5.67017,,,COSSEY,2
1899,1899,"Seyssins, Pré Nouvel",45.15115,5.68,,,PRENOUVE,1
19,19,"Meylan, Le Brêt",45.2059,5.77174,,,LEBRET,1
190,190,"Seyssinet-Pariset, Beau Site",45.17525,5.69689,,,BEAUSITE,1
1900,1900,"Seyssins, Pré Nouvel",45.15124,5.68,,,PRENOUVE,1
1905,1905,"Varces-Allières-et-Risset, La Pommeraie",45.08761,5.67221,,,POMMERAI,2
1906,1906,"Varces-Allières-et-Risset, La Pommeraie",45.08765,5.67206,,,POMMERAI,2
191,191,"Seyssinet-Pariset, L'Arche",45.17816,5.69702,,,CENTRSOC,1
1921,1921,"Claix, Les Taillis",45.11315,5.66589,,,TAILLIS,2
1922,1922,"Claix, Les Taillis",45.11315,5.66577,,,TAILLIS,2
1923,1923,"Claix, Fond Ratel",45.12208,5.6892,,,FONDRATE,2
1924,1924,"Claix, Fond Ratel",45.12215,5.68935,,,FONDRATE,2
1927,1927,"Varces-Allières-et-Risset, Risset",45.107,5.67294,,,RISSET,2
1928,1928,"Varces-Allières-et-Risset, Risset",45.10723,5.67309,,,RISSET,2
1929,1929,"Varces-Allières-et-Risset, Pavillon",45.1084,5.67434,,,PAVILLON,2
1930,1930,"Varces-Allières-et-Risset, Pavillon",45.1084,5.67425,,,PAVILLON,2
1933,1933,"Varces-Allières-et-Risset, Rond-Point de l'Europe",45.09312,5.68375,,,RONDEURO,1
1934,1934,"Varces-Allières-et-Risset, Rond-Point de l'Europe",45.09303,5.68364,,,RONDEURO,1
1935,1935,"Varces-Allières-et-Risset, L'Oriel",45.08896,5.68364,,,ORIEL,1
1936,1936,"Varces-Allières-et-Risset, L'Oriel",45.08984,5.68359,,,ORIEL,1
1937,1937,"Eybens, Les Javaux",45.14956,5.74934,,,JAVAUX,2
1938,1938,"Eybens, Les Javaux",45.14979,5.74983,,,JAVAUX,2
1939,1939,"Claix, Pont Rouge",45.1186,5.69289,,,PTROUGE,1
1940,1940,"Varces-Allières-et-Risset, Saint-Ange",45.09759,5.68395,,,STEANGE,1
1941,1941,"Varces-Allières-et-Risset, Saint-Ange",45.09683,5.68367,,,STEANGE,1
1942,1942,"Varces-Allières-et-Risset, Le Rochefort",45.10226,5.68584,,,ROCHEFOR,1
1943,1943,"Varces-Allières-et-Risset, Le Rochefort",45.10164,5.68534,,,ROCHEFOR,1
1944,1944,"Varces-Allières-et-Risset, Pré de l'Orme",45.10893,5.68813,,,PREORME,2
1945,1945,"Varces-Allières-et-Risset, Pré de l'Orme",45.11039,5.68855,,,PREORME,2
1950,1950,"Seyssins, Clinique du Dauphiné",45.16146,5.67351,,,LECELLIE,2
1951,1951,"Seyssins, Clinique du Dauphiné",45.16149,5.67354,,,LECELLIE,2
1953,1953,"Seyssins, Les Côtes",45.15689,5.6708,,,LESCOTES,2
1954,1954,"Seyssins, Le Parlement",45.15863,5.67453,,,LEPARL,1
1955,1955,"Seyssins, Le Parlement",45.15864,5.67447,,,LEPARL,1
1956,1956,"Seyssins, Le Priou",45.15698,5.6788,,,LEPRIOU,2
1961,1961,"Varces-Allières-et-Risset, République",45.08635,5.68299,,,VARCESRE,1
1962,1962,"Vif, Le Masségu",45.0521,5.67521,,,MASSEGU,1
1963,1963,"Vif, Le Masségu",45.05194,5.67464,,,MASSEGU,1
1969,1969,"Grenoble, Verdun - Préfecture",45.18841,5.73083,,,VERDUN,1
1970,1970,"Grenoble, Verdun - Préfecture",45.18839,5.73105,,,VERDUN,1
1973,1973,"Échirolles, Commanderie",45.14317,5.73349,,,COMMANDE,2
1977,1977,"Seyssins, Seyssins Village",45.1564,5.6814,,,SEYSVILL,1
1978,1978,"Seyssins, Seyssins Village",45.15628,5.68128,,,SEYVILLA,1
198,198,"Saint-Martin-le-Vinoux, Narbonne",45.21401,5.70998,,,NARBONNE,1
1986,1986,"Grenoble, Caserne de Bonne",45.18506,5.72533,,,CASBONNE,1
1987,1987,"Grenoble, Caserne de Bonne",45.18509,5.72542,,,CASBONNE,1
1990,1990,"Grenoble, Chavant",45.18551,5.73117,,,CHAVANT,1
1991,1991,"Grenoble, Chavant",45.18534,5.73149,,,CHAVANT,1
1994,1994,"Meylan, Aiguinards-Hexagone",45.20508,5.76438,,,AIGUIHEX,1
1995,1995,"Meylan, Aiguinards-Hexagone",45.20512,5.76472,,,AIGUIHEX,1
20,20,"Saint-Ismier, Bois Français",45.2248,5.83767,,,BOISFRAN,1
2004,2004,"Grenoble, Arlequin",45.16348,5.73056,,,ARLEQUIN,1
2005,2005,"Grenoble, Arlequin",45.16348,5.73051,,,ARLEQUIN,1
2006,2006,"Grenoble, La Bruyère-Parc Jean Verlhac",45.16631,5.73124,,,BRUYERE,1
2007,2007,"Grenoble, La Bruyère-Parc Jean Verlhac",45.16633,5.73122,,,BRUYERE,1
2008,2008,"Grenoble, Malherbe",45.16947,5.73225,,,MALHERBE,1
2009,2009,"Grenoble, Malherbe",45.16947,5.73222,,,MALHERBE,1
2010,2010,"Grenoble, MC2: Maison de la Culture",45.17349,5.73203,,,MAICULTU,1
2011,2011,"Grenoble, MC2: Maison de la Culture",45.17349,5.732,,,MAICULTU,1
2012,2012,"Grenoble, Mounier",45.17894,5.73184,,,MOUNIER,1
2013,2013,"Grenoble, Mounier",45.17894,5.7318,,,MOUNIER,1
2014,2014,"Grenoble, Albert 1er de Belgique",45.18164,5.73176,,,ALB1BELG,1
2015,2015,"Grenoble, Albert 1er de Belgique",45.18164,5.73173,,,ALB1BELG,1
2018,2018,"Grenoble, Verdun - Préfecture",45.18827,5.73151,,,VERDUN,1
2019,2019,"Grenoble, Verdun - Préfecture",45.18825,5.73148,,,VERDUN,1
2020,2020,"Grenoble, Hubert Dubedout - Maison du Tourisme",45.19018,5.72827,,,DUBEDOUT,1
2021,2021,"Grenoble, Hubert Dubedout - Maison du Tourisme",45.19015,5.72828,,,DUBEDOUT,1
2026,2026,"Grenoble, Alsace-Lorraine",45.18941,5.72033,,,ALSACELO,1
2027,2027,"Grenoble, Alsace-Lorraine",45.18938,5.72033,,,ALSACELO,1
203,203,"Saint-Martin-le-Vinoux, Narbonne",45.21405,5.70999,,,NARBONNE,1
2030,2030,"Grenoble, Saint-Bruno",45.18839,5.71385,,,STBRUNO,1
2031,2031,"Grenoble, Saint-Bruno",45.18836,5.71384,,,STBRUNO,1
2032,2032,"Grenoble, Berriat-Le Magasin",45.18882,5.70666,,,BERRIAT,1
2033,2033,"Grenoble, Berriat-Le Magasin",45.18878,5.70686,,,BERRIAT,1
2034,2034,"Fontaine, Les Fontainades - Le Vog",45.18911,5.69843,,,FONTAINA,1
2035,2035,"Fontaine, Les Fontainades - Le Vog",45.18908,5.69843,,,FONTAINA,1
2036,2036,"Fontaine, Louis Maisonnat",45.18922,5.69428,,,MAISONNA,1
2037,2037,"Fontaine, Louis Maisonnat",45.18919,5.69428,,,MAISONNA,1
2038,2038,"Fontaine, Fontaine Hôtel de Ville - La Source",45.19129,5.68748,,,FONTAHDV,1
2039,2039,"Fontaine, Fontaine Hôtel de Ville - La Source",45.19126,5.68747,,,FONTAHDV,1
2040,2040,"Fontaine, Charles Michels",45.19386,5.68019,,,CHARLMIC,1
2041,2041,"Fontaine, Charles Michels",45.19384,5.68018,,,CHARLMIC,1
2043,2043,"Grenoble, Sainte-Claire - Les Halles",45.19136,5.73064,,,STECLAIR,1
2044,2044,"Grenoble, Sainte-Claire - Les Halles",45.19135,5.73067,,,STECLAIR,1
2045,2045,"Grenoble, Notre-Dame - Musée",45.19361,5.73216,,,NOTREDAM,1
2046,2046,"Grenoble, Notre-Dame - Musée",45.1936,5.7322,,,NOTREDAM,1
2047,2047,"Grenoble, Ile Verte",45.19727,5.73674,,,ILEVERTE,1
2048,2048,"Grenoble, Ile Verte",45.19725,5.73677,,,ILEVERTE,1
2049,2049,"Grenoble, Hôpital Couple Enfant",45.20063,5.7412,,,TRONCHOP,1
2050,2050,"Grenoble, Hôpital Couple Enfant",45.20061,5.74123,,,TRONCHOP,1
2051,2051,"La Tronche, Hôpital Michallon - Grésivaudan",45.20034,5.74549,,,MICHALLO,1
2052,2052,"La Tronche, Hôpital Michallon - Grésivaudan",45.20032,5.74549,,,MICHALLO,1
2053,2053,"La Tronche, Grand Sablon",45.19906,5.74983,,,GRDSABLO,1
206,206,"Veurey-Voroize, Iles Cordées",45.25955,5.62603,,,ILESCORD,1
2060,2060,"Grenoble, Polesud - Alpexpo",45.15718,5.73284,,,POLESUD,1
2061,2061,"Grenoble, Polesud - Alpexpo",45.15721,5.73283,,,POLESUD,1
2062,2062,"Échirolles, Les Granges",45.15694,5.72783,,,GRANGES,1
2063,2063,"Échirolles, Les Granges",45.15696,5.72783,,,GRANGES,1
2064,2064,"Échirolles, Surieux",45.15834,5.72208,,,SURIEUX,1
2065,2065,"Échirolles, Surieux",45.15836,5.7221,,,SURIEUX,1
2066,2066,"Échirolles, Essarts - La Butte",45.15594,5.71923,,,ESSARTS,1
2067,2067,"Échirolles, Essarts - La Butte",45.15594,5.71919,,,ESSARTS,1
2068,2068,"Échirolles, La Rampe - Centre-Ville",45.14875,5.71799,,,RAMPE,1
2069,2069,"Échirolles, La Rampe - Centre-Ville",45.14876,5.71795,,,RAMPE,1
207,207,"Noyarey, Saint-Jean",45.2383,5.63509,,,NOYARSTJ,1
2070,2070,"Échirolles, Marie Curie",45.14562,5.71712,,,MARIECUR,1
2071,2071,"Échirolles, Marie Curie",45.14563,5.71709,,,MARIECUR,1
2072,2072,"Échirolles, Auguste Delaune",45.14242,5.71534,,,ADELAUNE,1
2073,2073,"Échirolles, Auguste Delaune",45.14241,5.71538,,,ADELAUNE,1
2074,2074,"Échirolles, Denis Papin",45.13846,5.71319,,,DENPAPIN,1
2075,2075,"Échirolles, Denis Papin",45.13847,5.71316,,,DENPAPIN,1
2076,2076,"Grenoble, Palais de Justice - Gare",45.1912,5.71173,,,PALJUSTI,1
2077,2077,"Grenoble, Palais de Justice - Gare",45.19118,5.7117,,,PALJUSTI,1
2087,2087,"Saint-Martin-le-Vinoux, Col de Clémencières",45.23435,5.72582,,,COLCLEME,2
209,209,"Saint-Martin-le-Vinoux, L'Hermitage",45.2148,5.70448,,,LHERMITA,1
2093,2093,"Grenoble, Saint-Roch",45.1915,5.73958,,,STROCH,1
21,21,"Meylan, La Revirée",45.20712,5.76741,,,REVIREE,1
2104,2104,"Varces-Allières-et-Risset, République",45.08684,5.68315,,,VARCESRE,1
2109,2109,"Fontaine, La Poya",45.19704,5.67234,,,LAPOYA,1
2110,2110,"Grenoble, Veyret",45.19483,5.72479,,,VEYRET,2
2115,2115,"Grenoble, Vallier - Libération",45.18016,5.71489,,,VALLIBE,2
2117,2117,"Corenc, Mairie-Condamine",45.21118,5.75092,,,MAIRIECO,2
2118,2118,"Corenc, Charles Pajon",45.2132,5.75244,,,PAJON,2
2119,2119,"Corenc, Monument",45.21644,5.75383,,,MONUMENT,2
2120,2120,"Corenc, La Corne d'Or",45.21813,5.76051,,,CORNEDOR,2
2121,2121,"Corenc, Corenc Village",45.21992,5.76279,,,CORENCVI,2
2122,2122,"Corenc, Providence",45.22101,5.76451,,,PROVIDEN,2
2123,2123,"Corenc, Rochasson",45.22379,5.76792,,,MOLLARD,2
2124,2124,"Corenc, La Garenne",45.22741,5.76592,,,GARENNE,2
2126,2126,"La Tronche, Saint-Germain",45.21015,5.74408,,,STGERMAI,2
2130,2130,"Meylan, Lionel Terray",45.20967,5.76624,,,TERRAY,2
2132,2132,"Meylan, Champlars",45.22023,5.7801,,,CHAMPLAR,2
2133,2133,"Meylan, Croix des Rameaux",45.22355,5.78179,,,CXRAMEAU,2
2135,2135,"Meylan, Gué du Boutet",45.22871,5.7848,,,GUEBOUTE,2
2136,2136,"Meylan, Pré Catlan",45.23019,5.78762,,,PRECATLA,2
2137,2137,"Meylan, Saint-Victor",45.22855,5.78912,,,STVICTOR,2
2138,2138,"Meylan, La Treille",45.22628,5.79116,,,TREILLE,2
2139,2139,"Claix, Mémorial",45.12265,5.69102,,,DRAC,2
2140,2140,"Claix, La Balmette",45.12521,5.68811,,,BALMETTE,2
2141,2141,"Claix, Le Coteau",45.1267,5.6867,,,COTEAU,2
2142,2142,"Claix, Les Cimentiers",45.13047,5.68357,,,CIMENTIE,2
2143,2143,"Claix, Moucherotte",45.12579,5.68096,,,MOUCHERO,2
2144,2144,"Claix, Les Pérouses",45.12457,5.67937,,,PEROUSES,2
2146,2146,"Claix, Furonnières",45.12597,5.6712,,,FURONNIE,2
2148,2148,"Claix, Boulodrome-Ecole",45.11962,5.66899,,,BOULODRO,2
2149,2149,"Claix, Les Pampres",45.11537,5.66589,,,PAMPRES,2
215,215,"Gières, Le Sonnant",45.18161,5.78271,,,SONNANT,1
2150,2150,"Claix, Bellevue",45.11196,5.66548,,,BELLEVUE,2
2151,2151,"Claix, La Chanteraie",45.11012,5.66548,,,CHANTERA,2
2153,2153,"Sassenage, Blanc Fontaine",45.21087,5.65628,,,BLANCFON,2
2154,2154,"Sassenage, Les Chênes",45.21815,5.6535,,,CHENES,2
2155,2155,"Sassenage, Les Parcs",45.21654,5.65189,,,PARCS,2
2156,2156,"Sassenage, Rivoire de la Dame",45.21497,5.6516,,,RIVOIRE,2
2157,2157,"Sassenage, Mollard Pichon",45.21354,5.65237,,,MOLLARDP,2
2158,2158,"Sassenage, Beaurevoir",45.2101,5.64855,,,BEAUREVO,2
2159,2159,"Sassenage, Les Côtes",45.21007,5.64749,,,COTESASS,1
216,216,"Meylan, Revirée - Sayettes",45.21205,5.76638,,,REVIREES,1
2160,2160,"Corenc, Mairie-Condamine",45.21101,5.75038,,,MAIRIECO,2
2161,2161,"Corenc, Charles Pajon",45.21426,5.75315,,,PAJON,2
2162,2162,"Corenc, Monument",45.21635,5.75384,,,MONUMENT,2
2163,2163,"Corenc, La Corne d'Or",45.21809,5.76046,,,CORNEDOR,2
2164,2164,"Corenc, Corenc Village",45.21983,5.76229,,,CORENCVI,2
2165,2165,"Corenc, Providence",45.22111,5.76456,,,PROVIDEN,2
2166,2166,"Corenc, Rochasson",45.22364,5.7678,,,MOLLARD,2
2169,2169,"La Tronche, Saint-Germain",45.21004,5.74396,,,STGERMAI,2
217,217,"Échirolles, Grugliasco",45.15182,5.71016,,,GRUGLIAS,1
2172,2172,"Meylan, Lionel Terray",45.21035,5.76713,,,TERRAY,2
2174,2174,"Meylan, Champlars",45.22023,5.77982,,,CHAMPLAR,2
2175,2175,"Meylan, Croix des Rameaux",45.22374,5.78177,,,CXRAMEAU,2
2177,2177,"Meylan, Gué du Boutet",45.22869,5.78464,,,GUEBOUTE,2
2178,2178,"Meylan, Pré Catlan",45.23002,5.78733,,,PRECATLA,2
2179,2179,"Meylan, Saint-Victor",45.22859,5.78928,,,STVICTOR,2
2180,2180,"Meylan, La Treille",45.22639,5.79109,,,TREILLE,2
2181,2181,"Claix, Mémorial",45.12257,5.69108,,,DRAC,2
2182,2182,"Claix, La Balmette",45.12521,5.68805,,,BALMETTE,2
2183,2183,"Claix, Le Coteau",45.12662,5.68673,,,COTEAU,2
2184,2184,"Claix, Les Cimentiers",45.13045,5.68362,,,CIMENTIE,2
2185,2185,"Claix, Moucherotte",45.12564,5.68089,,,MOUCHERO,2
2186,2186,"Claix, Les Pérouses",45.12448,5.67945,,,PEROUSES,2
2188,2188,"Claix, Furonnières",45.12596,5.67132,,,FURONNIE,2
2189,2189,"Claix, Poste",45.1211,5.67214,,,POSTE,2
2190,2190,"Claix, Boulodrome-Ecole",45.11961,5.66934,,,BOULODRO,2
2191,2191,"Claix, Les Pampres",45.11525,5.66603,,,PAMPRES,2
2192,2192,"Claix, Bellevue",45.11178,5.66558,,,BELLEVUE,2
2193,2193,"Claix, La Chanteraie",45.11022,5.6655,,,CHANTERA,2
2194,2194,"Sassenage, Blanc Fontaine",45.21064,5.65625,,,BLANCFON,2
2195,2195,"Sassenage, Les Chênes",45.21809,5.65343,,,CHENES,2
2196,2196,"Sassenage, Les Parcs",45.21658,5.65201,,,PARCS,2
2197,2197,"Sassenage, Rivoire de la Dame",45.21493,5.65169,,,RIVOIRE,2
2198,2198,"Sassenage, Mollard Pichon",45.21361,5.65249,,,MOLLARDP,2
2199,2199,"Sassenage, Beaurevoir",45.21009,5.64861,,,BEAUREVO,2
220,220,"Veurey-Voroize, Perrières",45.26152,5.62492,,,PERIERES,1
2200,2200,"Corenc, Corenc Mairie",45.20973,5.75272,,,CORENCMA,1
2201,2201,"Corenc, Corenc Mairie",45.20972,5.75263,,,CORENCMA,2
2207,2207,"Échirolles, Echirolles Gare",45.15308,5.71848,,,ECHIGARE,1
2208,2208,"Échirolles, Echirolles Gare",45.15308,5.71845,,,ECHIGARE,1
221,221,"Veurey-Voroize, Les Echalières",45.26819,5.61932,,,ECHALIER,1
2212,2212,"Grenoble, Grand'place",45.15908,5.73193,,,GRDPLACE,1
2213,2213,"Grenoble, Victor Hugo",45.18984,5.72508,,,VICTHUGO,1
2214,2214,"Grenoble, Gares",45.18999,5.71514,,,GARES,1
2215,2215,"Fontaine, La Poya",45.19707,5.67235,,,LAPOYA,1
2216,2216,"Grenoble, Gares",45.19011,5.71523,,,GARES,1
2217,2217,"Grenoble, Victor Hugo",45.18982,5.72511,,,VICTHUGO,1
2218,2218,"Grenoble, Grand'place",45.15906,5.73262,,,GRDPLACE,1
2219,2219,"Grenoble, Cité Internationale",45.19489,5.7112,,,CITEINTE,1
2220,2220,"Grenoble, Cité Internationale",45.19489,5.71116,,,CITEINTE,1
2254,2254,"Grenoble, Chavant",45.18454,5.73174,,,CHAVANT,1
2255,2255,"Grenoble, Chavant",45.18454,5.73168,,,CHAVANT,1
2258,2258,"Bresson, Avenue de la République",45.14277,5.73589,,,AVREPUB,2
2259,2259,"Bresson, Avenue de la République",45.14279,5.73589,,,AVREPUB,2
226,226,"Échirolles, Colonel Manhès",45.14659,5.70156,,,COLMANHE,1
2261,2261,"Sarcenas, Col de Palaquit",45.27321,5.76552,,,PALAQUIT,2
2262,2262,"Sarcenas, Col de Palaquit",45.27309,5.7657,,,PALAQUIT,2
2263,2263,"Le Sappey-en-Chartreuse, Col de Palaquit",45.27269,5.76548,,,PALAQUIT,2
2268,2268,"Corenc, Hameau de Vence",45.24126,5.75354,,,HVENCE,2
2269,2269,"Corenc, Hameau de Vence",45.24117,5.75355,,,HVENCE,2
227,227,"Échirolles, Marie Curie",45.14499,5.71729,,,MARIECUR,1
2270,2270,"Sassenage, Château de Beaurevoir",45.21228,5.65204,,,CHATBEAU,2
2271,2271,"Sassenage, Château de Beaurevoir",45.21233,5.65209,,,CHATBEAU,2
2272,2272,"Grenoble, Chavant",45.18466,5.73178,,,CHAVANT,2
2273,2273,"Grenoble, Chavant",45.18466,5.7317,,,CHAVANT,2
2274,2274,"Montchaboud, Champ Clocher",45.09223,5.77028,,,CHAMP,2
2275,2275,"Montchaboud, Champ Clocher",45.09231,5.7705,,,CHAMP,2
2276,2276,"Le Pont-de-Claix, L'Etoile",45.13796,5.70415,,,LETOILE,2
2278,2278,"Le Pont-de-Claix, L'Etoile Centre des Sciences",45.13825,5.70176,,,LETOILE,2
2279,2279,"Le Pont-de-Claix, L'Etoile Centre des Sciences",45.13814,5.70174,,,LETOILE,2
228,228,"Échirolles, Grugliasco",45.15157,5.70979,,,GRUGLIAS,1
2280,2280,"Notre-Dame-de-Commiers, Notre-Dame-de-Commiers Le Village",45.00968,5.70017,,,NDCV,1
2282,2282,"Claix, Beau Dunois",45.12537,5.67233,,,BEAU,2
2283,2283,"Claix, Beau Dunois",45.12533,5.67234,,,BEAU,2
2284,2284,"Claix, Les Chaumes",45.12664,5.67412,,,CHAUMES,2
2285,2285,"Claix, Les Chaumes",45.12657,5.67411,,,CHAUMES,2
2286,2286,"Claix, Vert Sapin",45.12568,5.67839,,,VERT,2
2287,2287,"Claix, Vert Sapin",45.12548,5.67849,,,VERT,2
2288,2288,"Vizille, Le Grimpillon",45.08241,5.77524,,,GRIMPI,2
2289,2289,"Vizille, Le Grimpillon",45.08237,5.77513,,,GRIMPI,2
229,229,"Échirolles, Paul Héroult",45.14728,5.71347,,,PHEROULT,1
2290,2290,"Jarrie, Clos Jouvin",45.09709,5.74605,,,CLOSJUV,2
2291,2291,"Jarrie, Clos Jouvin",45.09704,5.74612,,,CLOSJUV,2
2292,2292,"Échirolles, Pied de la Combe",45.13449,5.71476,,,COMBE,2
2293,2293,"Échirolles, Pied de la Combe",45.13462,5.7145,,,COMBE,2
2294,2294,"Proveysieux, Moretière",45.25329,5.69417,,,MORE,2
2295,2295,"Proveysieux, Moretière",45.25321,5.6942,,,MORE,2
230,230,"Échirolles, Marie Curie",45.1447,5.71643,,,MARIECUR,1
231,231,"Échirolles, Auguste Delaune",45.14246,5.71519,,,ADELAUNE,1
2310,2310,"Notre-Dame-de-Commiers, Les Pauttats",45.01143,5.7016,,,PAUT,1
2311,2311,"Notre-Dame-de-Commiers, Les Pauttats",45.01144,5.70151,,,PAUT,1
2312,2312,"Notre-Dame-de-Commiers, Le Moulin",45.01511,5.7045,,,MOULIN,1
2313,2313,"Notre-Dame-de-Commiers, Le Moulin",45.0149,5.70417,,,MOULIN,1
2314,2314,"Saint-Georges-de-Commiers, Pré du Bil",45.02472,5.7066,,,PREBIL,1
2315,2315,"Saint-Georges-de-Commiers, Pré du Bil",45.02454,5.70651,,,PREBIL,1
2316,2316,"Saint-Georges-de-Commiers, Saint-Pierre Eglise",45.02819,5.70606,,,SAINTPE,1
2317,2317,"Saint-Georges-de-Commiers, Saint-Pierre Eglise",45.02858,5.70587,,,SAINTPE,1
2318,2318,"Saint-Georges-de-Commiers, La Tour",45.03821,5.70416,,,LATOUR,1
2319,2319,"Saint-Georges-de-Commiers, La Tour",45.03828,5.70416,,,LATOUR,1
232,232,"Échirolles, Grugliasco",45.15122,5.70876,,,GRUGLIAS,1
2320,2320,"Saint-Georges-de-Commiers, Les Guiberts",45.03851,5.7058,,,GUILBERT,1
2321,2321,"Saint-Georges-de-Commiers, Les Guiberts",45.03839,5.7058,,,GUILBERT,1
2322,2322,"Saint-Georges-de-Commiers, Les Condamines",45.04468,5.7073,,,CONDAM,1
2323,2323,"Saint-Georges-de-Commiers, Les Condamines",45.04427,5.70688,,,CONDAM,1
2326,2326,"Saint-Georges-de-Commiers, Le Canal",45.05228,5.71082,,,CANAL,1
2327,2327,"Saint-Georges-de-Commiers, Le Canal",45.05225,5.71089,,,CANAL,1
2328,2328,"Saint-Georges-de-Commiers, Les Isles",45.04881,5.70662,,,ISLE,1
2329,2329,"Saint-Georges-de-Commiers, Les Isles",45.04862,5.70662,,,ISLE,1
233,233,"Échirolles, Ecoles Hospitalières",45.14627,5.72981,,,ECOLHOSP,1
2330,2330,"Saint-Georges-de-Commiers, Les Peupliers",45.04574,5.70235,,,PEUPLE,1
2331,2331,"Saint-Georges-de-Commiers, Les Peupliers",45.04555,5.70215,,,PEUPLE,1
2335,2335,"Saint-Martin-d'Uriage, Saint Nizier d'Uriage",45.16425,5.83508,,,SNU,1
2337,2337,"Saint-Martin-d'Uriage, La Ronzière",45.16886,5.84088,,,RONZ,1
2339,2339,"Saint-Martin-d'Uriage, Combeloup",45.16969,5.84287,,,COMB,1
2341,2341,"Saint-Martin-d'Uriage, Hameau Le Faux",45.17158,5.8465,,,FAUX,1
2343,2343,"Saint-Martin-d'Uriage, Le Rossin",45.17034,5.85429,,,RONS,1
2345,2345,"Saint-Martin-d'Uriage, La Chenevarie",45.17333,5.85762,,,CHENE,1
2347,2347,"Murianette, La Pérérée",45.17629,5.86084,,,PERE,1
2349,2349,"Saint-Martin-d'Uriage, Corps d'Uriage",45.17812,5.86491,,,CORP,1
235,235,"Échirolles, Le Château",45.14724,5.72672,,,CHATEAU,1
2351,2351,"Saint-Martin-d'Uriage, Le Rocharey",45.17482,5.87047,,,ROCH,1
2353,2353,"Saint-Martin-d'Uriage, La Croix de Pinet",45.1724,5.87396,,,CROI,1
2355,2355,"Saint-Martin-d'Uriage, Izards Patte d'Oie",45.16888,5.86508,,,ISAR,1
2357,2357,"Saint-Martin-d'Uriage, Les Valets",45.16744,5.85783,,,VALET,1
2359,2359,"Saint-Martin-d'Uriage, Le Pinet d'Uriage",45.1652,5.84894,,,PINET,1
2361,2361,"Saint-Martin-d'Uriage, Carrefour du Replat",45.16148,5.85102,,,CARRE,1
2363,2363,"Saint-Martin-d'Uriage, Le Penet",45.15868,5.84845,,,PENET,1
2365,2365,"Saint-Martin-d'Uriage, Lotissement La Noyarey",45.16178,5.84251,,,LOTI,1
2367,2367,"Saint-Martin-d'Uriage, Hautes Vues",45.16297,5.83952,,,HAUT,1
237,237,"Échirolles, La Rampe - Centre-Ville",45.14967,5.71884,,,RAMPE,1
2372,2372,"Jarrie, André Malraux",45.09434,5.74344,,,ANMAL,2
2373,2373,"Jarrie, André Malraux",45.09428,5.74328,,,ANMAL,2
2374,2374,"Eybens, Eybens Mairie",45.14732,5.74982,,,EYBMAIRI,1
2376,2376,"Eybens, Eybens Mairie",45.14728,5.75011,,,EYBMAIRI,1
238,238,"Échirolles, Grugliasco",45.15122,5.70907,,,GRUGLIAS,1
239,239,"Échirolles, Le Château",45.14732,5.72671,,,CHATEAU,1
24,24,"Grenoble, Victor Hugo",45.19056,5.72512,,,VICTHUGO,1
245,245,"La Tronche, Grande Tronche",45.20702,5.74536,,,GDTRONCH,1
246,246,"Échirolles, Auguste Delaune",45.14219,5.71511,,,ADELAUNE,1
248,248,"Échirolles, La Rampe - Centre-Ville",45.14965,5.71924,,,RAMPE,1
249,249,"Échirolles, Ecoles Hospitalières",45.14638,5.72973,,,ECOLHOSP,1
250,250,"Échirolles, Hôpital Sud",45.1469,5.73274,,,HOPITSUD,1
251,251,"Échirolles, Hôpital Sud",45.14691,5.73235,,,HOPITSUD,1
252,252,"Échirolles, François Quesnay",45.14793,5.73494,,,FRQUESNA,1
253,253,"Échirolles, François Quesnay",45.1479,5.73517,,,FRQUESNA,1
254,254,"Échirolles, Bayard",45.14612,5.70442,,,BAYARD,1
256,256,"Échirolles, Danielle Casanova",45.14406,5.7005,,,CASANOVA,1
257,257,"Échirolles, Vassieux",45.14303,5.70002,,,VASSIEUX,1
26,26,"Meylan, Les Léchères",45.20454,5.75928,,,LECHERES,1
265,265,"Claix, Carrière",45.1148,5.69029,,,CARRIERE,1
266,266,"Claix, Carrière",45.11471,5.69019,,,CARRIERE,1
267,267,"Claix, La Ronzy",45.121,5.67609,,,RONZY,1
268,268,"Claix, La Chièze",45.12118,5.68251,,,CHIEZE,1
27,27,"Meylan, Les Léchères",45.20521,5.75858,,,LECHERES,1
278,278,"Meylan, Les Jaillières",45.22152,5.79088,,,JAILLIER,1
28,28,"Meylan, Plaine Fleurie",45.20268,5.7609,,,PLAINEFL,1
280,280,"Meylan, Bérivière",45.21871,5.78303,,,BERIVIER,1
282,282,"Meylan, Les Mûriers",45.21504,5.77969,,,MURIERS,1
283,283,"Meylan, Saint-Jean Bosco",45.2129,5.77365,,,STJBOSCO,1
284,284,"Meylan, Chaumetière",45.21249,5.77128,,,CHAUMETI,1
288,288,"Meylan, Plaine Fleurie",45.20273,5.76086,,,PLAINEFL,1
289,289,"Meylan, La Carronnerie Basse",45.20119,5.75875,,,CARONBAS,1
29,29,"Meylan, Les Jaillières",45.22064,5.78917,,,JAILLIER,1
290,290,"La Tronche, Pascal",45.1993,5.75549,,,PASCAL,1
291,291,"La Tronche, Pascal",45.1995,5.75528,,,PASCAL,1
2917,2917,Les Alpilles,45.18894,5.76882,,,PROMOSOC,1
2918,2918,Les Alpilles,45.18878,5.76988,,,PROMOSOC,1
292,292,"La Tronche, Doyen Gosse",45.20135,5.75297,,,DOYENGOS,1
293,293,"La Tronche, Vercors",45.20065,5.75111,,,VERCORS,1
294,294,"La Tronche, Grand Sablon",45.19902,5.74959,,,GRDSABLO,1
295,295,"Meylan, Place de la Louisiane",45.20869,5.76315,,,PLALOUIS,1
296,296,"Échirolles, Musée Géo Charles",45.14921,5.70116,,,MUSGEOCH,1
299,299,"Meylan, Place de la Louisiane",45.20876,5.76321,,,PLALOUIS,1
30,30,"Meylan, Saint-Mury",45.21947,5.78613,,,STMURY,1
300,300,"Échirolles, Le Village",45.14116,5.72025,,,VILLAGE,1
304,304,"Saint-Égrève, Cap 38",45.2404,5.66661,,,CAP38,1
3054,3054,"Seyssins, Ancienne Gare",45.16051,5.6815,,,ANCIGARE,2
31,31,"Meylan, Bérivière",45.21882,5.78312,,,BERIVIER,1
311,311,"Eybens, Le Crêt",45.14392,5.74859,,,LECRET,1
312,312,"Eybens, Le Crêt",45.14377,5.74854,,,LECRET,1
313,313,"Bresson, Lagay",45.14093,5.74998,,,LAGAY,1
314,314,"Bresson, Lagay",45.1408,5.74997,,,LAGAY,1
315,315,"Bresson, Bresson Mairie",45.1377,5.74771,,,BRESSON,1
316,316,"Bresson, Les Vignes",45.13809,5.74574,,,VIGNES,1
317,317,"Bresson, La Maritelle",45.14162,5.74135,,,MARITELL,1
318,318,"Bresson, La Maritelle",45.14108,5.74131,,,MARITELL,1
32,32,"Meylan, Les Mûriers",45.21605,5.77947,,,MURIERS,1
3201,3201,"Grenoble, Louise Michel",45.16936,5.71278,,,LMICHEL,1
3202,3202,"Grenoble, Louise Michel",45.16937,5.71274,,,LMICHEL,1
3203,3203,"Grenoble, Alliés",45.17398,5.71433,,,ALLIES,1
3204,3204,"Grenoble, Alliés",45.17399,5.71429,,,ALLIES,1
3205,3205,"Grenoble, Vallier - Libération",45.17977,5.71629,,,VALLIBE,1
3206,3206,"Grenoble, Vallier - Libération",45.17978,5.71624,,,VALLIBE,1
3207,3207,"Grenoble, Estacade Condorcet",45.18486,5.718,,,CONDORCE,1
3208,3208,"Grenoble, Estacade Condorcet",45.18486,5.71796,,,CONDORCE,1
3209,3209,"Grenoble, Alsace-Lorraine",45.18893,5.71937,,,ALSACELO,1
3210,3210,"Grenoble, Alsace-Lorraine",45.18894,5.71932,,,ALSACELO,1
3211,3211,"Grenoble, Annie Fratellini-Esplanade",45.19567,5.71691,,,ESPLANAD,1
3212,3212,"Grenoble, Annie Fratellini-Esplanade",45.19566,5.71688,,,ESPLANAD,1
3213,3213,"Grenoble, Casamaures - Village",45.19882,5.7169,,,CASAVILL,1
3214,3214,"Grenoble, Casamaures - Village",45.19883,5.71685,,,CASAVILL,1
3215,3215,"Saint-Martin-le-Vinoux, Hôtel de Ville",45.20778,5.70678,,,MAIRIESM,1
3216,3216,"Saint-Martin-le-Vinoux, Hôtel de Ville",45.20776,5.70674,,,MAIRIESM,1
3217,3217,"Saint-Martin-le-Vinoux, Horloge",45.21387,5.69839,,,HORLOGE,1
3218,3218,"Saint-Martin-le-Vinoux, Horloge",45.21385,5.69837,,,HORLOGE,1
3219,3219,"Saint-Martin-le-Vinoux, Néron",45.21767,5.69363,,,NERON,1
3220,3220,"Saint-Martin-le-Vinoux, Néron",45.21764,5.69357,,,NERON,1
3221,3221,"Saint-Égrève, Fiancey - Prédieu",45.22292,5.68908,,,PREDIEU,1
3222,3222,"Saint-Égrève, Fiancey - Prédieu",45.22288,5.68901,,,PREDIEU,1
3223,3223,"Saint-Égrève, Muret",45.22569,5.68666,,,MURET,1
3224,3224,"Saint-Égrève, Muret",45.22566,5.68658,,,MURET,1
3225,3225,"Saint-Égrève, Pont de Vence",45.22991,5.6826,,,PTVENCE,1
3226,3226,"Saint-Égrève, Pont de Vence",45.22989,5.68256,,,PTVENCE,1
3227,3227,"Saint-Égrève, La Pinéa - St Robert",45.23546,5.67596,,,PINEA,1
3228,3228,"Saint-Égrève, La Pinéa - St Robert",45.23542,5.67591,,,PINEA,1
323,323,"Échirolles, Stade",45.14344,5.72946,,,STADE,1
3231,3231,"Saint-Égrève, Karben",45.24228,5.67122,,,KARBEN,1
3232,3232,"Saint-Égrève, Karben",45.24226,5.67118,,,KARBEN,1
3233,3233,"Fontanil-Cornillon, Rafour",45.24825,5.66661,,,RAFOUR,1
3234,3234,"Fontanil-Cornillon, Rafour",45.24824,5.66656,,,RAFOUR,1
3235,3235,"Fontanil-Cornillon, Palluel",45.25488,5.66168,,,FONTANIL,1
3236,3236,"Fontanil-Cornillon, Palluel",45.25487,5.66164,,,FONTANIL,1
327,327,"Grenoble, Les Essarts",45.1593,5.71376,,,LESESSAR,1
329,329,"Grenoble, Beauvert",45.16415,5.71776,,,BEAUVERT,1
3297,3297,"Gières, Gières Gare - Universités",45.18491,5.78527,,,GIERGARE,1
3298,3298,"Gières, Gières Gare - Universités",45.1849,5.78546,,,GIERGARE,1
33,33,"Meylan, Chaumetière",45.2124,5.76983,,,CHAUMETI,1
330,330,"Meylan, Aiguinards-Hexagone",45.20603,5.76421,,,AIGUIHEX,1
331,331,"Gières, Champrondet",45.18573,5.80291,,,CHAMPRON,1
333,333,"Gières, Edelweiss",45.18149,5.78755,,,EDELWEIS,1
334,334,"Gières, Edelweiss",45.18142,5.78771,,,EDELWEIS,1
335,335,"Gières, Roseraie",45.17897,5.78098,,,ROSERAIE,1
336,336,"Saint-Martin-d'Hères, Anguisses",45.17782,5.77786,,,ANGUISSE,1
337,337,"Saint-Martin-d'Hères, Anguisses",45.1778,5.77798,,,ANGUISSE,1
338,338,"Saint-Martin-d'Hères, Galochère",45.1787,5.77323,,,GALOCHER,1
339,339,"Saint-Martin-d'Hères, Elsa Triolet",45.17952,5.77009,,,ELSATRIO,1
3393,3393,"Le Pont-de-Claix, L'Etoile",45.13785,5.70371,,,LETOILE,2
3394,3394,"Gières, Gières Gare - Universités",45.18554,5.78563,,,GIERGARE,2
3395,3395,"Gières, Gières Gare - Universités",45.18548,5.78523,,,GIERGARE,2
34,34,"Meylan, Saint-Jean Bosco",45.21282,5.77305,,,STJBOSCO,1
340,340,"Saint-Martin-d'Hères, Coli",45.18071,5.7657,,,COLI,1
341,341,"Saint-Martin-d'Hères, Cité Labeye",45.18253,5.75906,,,CITELABE,1
342,342,"Saint-Martin-d'Hères, Gay",45.1848,5.75086,,,GAY,1
343,343,"Saint-Martin-d'Hères, Gay",45.18448,5.75186,,,GAY,1
344,344,"Saint-Martin-d'Hères, Croix Rouge",45.18555,5.74786,,,CROIXROU,1
347,347,"Saint-Martin-d'Hères, Henri Wallon",45.17563,5.76391,,,HENRIWAL,1
348,348,"Saint-Martin-d'Hères, Pablo Neruda",45.17395,5.76074,,,PABLONER,1
349,349,"Saint-Martin-d'Hères, Pablo Neruda",45.17396,5.76091,,,PABLONER,1
35,35,"Meylan, Lycée du Grésivaudan - Bachais",45.21416,5.7791,,,LYCBACHA,1
350,350,"Saint-Martin-d'Hères, 8 mai 1945",45.17105,5.75682,,,8MAI1945,1
352,352,"Saint-Martin-d'Hères, Chopin",45.16605,5.75142,,,CHOPIN,1
353,353,"Saint-Martin-d'Hères, Chopin",45.16628,5.75184,,,CHOPIN,1
354,354,"Saint-Martin-d'Hères, Le Marais",45.16362,5.75062,,,LEMARAIS,1
36,36,"Meylan, Montlivet",45.22996,5.78973,,,MONTLIVE,1
360,360,"Échirolles, Gay Lussac",45.13565,5.71258,,,GAYLUSSA,1
361,361,"Grenoble, Malherbe",45.16897,5.73296,,,MALHERBE,1
367,367,"Grenoble, Maison des Anciens",45.15941,5.72348,,,MAISANCI,1
368,368,"Meylan, Aiguinards-Hexagone",45.20635,5.76409,,,AIGUIHEX,1
37,37,"Domène, Domène Mairie",45.20152,5.83821,,,DOMENEMA,1
371,371,"Seyssinet-Pariset, Les Combes",45.1682,5.67886,,,LECOMB,1
372,372,"Grenoble, Louis Jouvet",45.16999,5.73712,,,LOUISJOU,1
373,373,"Grenoble, Saint-Augustin",45.17827,5.74591,,,STAUGUST,1
374,374,"Saint-Martin-d'Hères, Edouard Vaillant",45.17901,5.75507,,,EDVAILLA,1
375,375,"Saint-Martin-d'Hères, Pierre Sémard",45.18132,5.75719,,,PIERSEMA,1
376,376,"Saint-Martin-d'Hères, Pierre Sémard",45.18128,5.75712,,,PIERSEMA,1
38,38,"Domène, Les Mortes",45.19636,5.82887,,,MORTES,1
385,385,"Gières, Vignate",45.18928,5.77815,,,VIGNATE,1
386,386,"Gières, Vignate",45.18923,5.77806,,,VIGNATE,1
39,39,"Murianette, Le Bourg",45.19186,5.81663,,,BOURG,1
394,394,"Meylan, Piscine des Buclos",45.20888,5.77538,,,PISBUCLO,1
396,396,"Meylan, La Revirée",45.20736,5.76801,,,REVIREE,1
3996,3996,"Grenoble, Victor Hugo",45.18867,5.72514,,,VICTHUGO,2
4,4,"Meylan, Revirée - Sayettes",45.2122,5.76728,,,REVIREES,1
40,40,"Gières, La Perrière",45.18902,5.81006,,,PERRIERE,1
401,401,"Meylan, Centre Théologique",45.20628,5.75312,,,CENTHEOL,1
4019,4019,"Grenoble, Marie-Louise Paris - CEA",45.20279,5.70369,,,CEACAMB,1
402,402,"La Tronche, Musée Hébert",45.20561,5.7489,,,MUSHEBER,1
4020,4020,"Grenoble, Marie-Louise Paris - CEA",45.20214,5.7045,,,CEACAMB,1
4021,4021,"Grenoble, Oxford",45.20597,5.69958,,,PRESQUIL,1
4022,4022,"Grenoble, Oxford",45.20595,5.69956,,,PRESQUIL,1
4027,4027,"Grenoble, Verdun - Préfecture",45.18829,5.73163,,,VERDUN,1
4029,4029,"Grenoble, Maurice Gignoux",45.19423,5.72518,,,GIGNOUX,2
403,403,"La Tronche, Commandant Nal",45.20331,5.74561,,,COMMANAL,1
4030,4030,"Grenoble, Maurice Gignoux",45.19421,5.72525,,,GIGNOUX,2
4031,4031,"Vif, Collège le Masségu",45.05232,5.67191,,,MASSEGU,1
4041,4041,"Échirolles, Essarts - La Butte",45.15637,5.71922,,,ESSARTS,2
4043,4043,"Grenoble, Vallier - Libération",45.18038,5.7151,,,VALLIBE,2
4073,4073,"Le Gua, L'Arzelier",44.997,5.60277,,,ARZELIER,2
4074,4074,"Le Gua, L'Arzelier",44.99692,5.60258,,,ARZELIER,2
4075,4075,"Château-Bernard, Col de l'Arzelier",44.9909,5.59538,,,COLARZEL,2
4076,4076,"Château-Bernard, Col de l'Arzelier",44.99088,5.59543,,,COLARZEL,1
4079,4079,"Saint-Martin-le-Vinoux, Résistance",45.20341,5.71433,,,16AOUT44,2
4080,4080,"Saint-Martin-le-Vinoux, Résistance",45.20339,5.71428,,,16AOUT44,2
4081,4081,"Saint-Martin-le-Vinoux, Canet",45.21043,5.70619,,,CHEMI,2
4082,4082,"Saint-Martin-le-Vinoux, Canet",45.21067,5.70609,,,CHEMI,2
4085,4085,"Saint-Égrève, Collège Barnave",45.23094,5.69194,,,BARNA,2
4086,4086,"Saint-Égrève, Collège Barnave",45.23097,5.69175,,,BARNA,2
4087,4087,"Saint-Égrève, Chemin Vert",45.23657,5.69245,,,CHEMVER,2
4088,4088,"Saint-Égrève, Chemin Vert",45.2366,5.69236,,,CHEMVER,2
4089,4089,"Proveysieux, Garcinière",45.25161,5.69494,,,RIGAU,2
4090,4090,"Proveysieux, Garcinière",45.25164,5.69488,,,RIGAU,2
4091,4091,"Proveysieux, Le Mollard",45.25819,5.69604,,,EGREMOLL,2
4092,4092,"Proveysieux, Le Mollard",45.25822,5.69591,,,EGREMOLL,2
4093,4093,"Proveysieux, Proveysieux Village",45.26335,5.69981,,,EGRECOLE,2
4094,4094,"Proveysieux, Proveysieux Village",45.26335,5.69973,,,EGRECOLE,2
4095,4095,"Proveysieux, Pont du Gua",45.27608,5.70732,,,EGREGUA,2
4096,4096,"Proveysieux, Pont du Gua",45.27609,5.70727,,,EGREGUA,2
4097,4097,"Proveysieux, Savoyardière",45.27832,5.70838,,,SAVOY,2
4098,4098,"Proveysieux, Savoyardière",45.27833,5.70833,,,SAVOY,2
4099,4099,"Proveysieux, Pomarey Bas",45.28045,5.70968,,,POMAR,2
41,41,"Murianette, La Perrière",45.18971,5.81173,,,PERRIERE,1
4100,4100,"Proveysieux, Pomarey Bas",45.28045,5.70961,,,POMAR,2
4101,4101,"Proveysieux, Pomarey",45.28231,5.71081,,,POMAREY,2
4102,4102,"Proveysieux, Pomarey",45.28234,5.71075,,,POMAREY,2
4103,4103,"Proveysieux, Planfay Bas",45.27869,5.71357,,,PLANF,2
4104,4104,"Proveysieux, Planfay Bas",45.2787,5.71365,,,PLANF,2
4105,4105,"Proveysieux, Planfay Haut",45.28076,5.71915,,,PLANFAY,2
4107,4107,"Fontanil-Cornillon, Le Fontanil Mairie",45.25564,5.6664,,,FONTANIM,1
4108,4108,"Fontanil-Cornillon, Le Fontanil Mairie",45.25559,5.6663,,,FONTANIM,1
4113,4113,"Mont-Saint-Martin, Fochaire",45.27154,5.67451,,,FOCHAIRE,2
4114,4114,"Mont-Saint-Martin, Fochaire",45.27158,5.67442,,,FOCHAIRE,2
4116,4116,"Mont-Saint-Martin, Chemin de Namière",45.27232,5.67853,,,NAMIERE,2
4119,4119,"Brié-et-Angonnes, Tavernolles",45.13612,5.77049,,,TAVER,2
4120,4120,"Brié-et-Angonnes, Tavernolles",45.13628,5.77037,,,TAVER,2
4121,4121,"Brié-et-Angonnes, L'Enclos",45.13329,5.77473,,,LENCLOS,2
4122,4122,"Brié-et-Angonnes, L'Enclos",45.1333,5.77484,,,LENCLOS,2
4123,4123,"Brié-et-Angonnes, Souveyron",45.13053,5.77824,,,SOUVE,2
4124,4124,"Brié-et-Angonnes, Souveyron",45.13061,5.77825,,,SOUVE,2
4125,4125,"Brié-et-Angonnes, Le Coin",45.12795,5.78504,,,SOUVEVI,2
4126,4126,"Brié-et-Angonnes, Le Coin",45.12799,5.78511,,,SOUVEVI,2
4127,4127,"Brié-et-Angonnes, Les Métraux",45.12169,5.78498,,,METRA,2
4128,4128,"Brié-et-Angonnes, Les Métraux",45.12164,5.78504,,,METRA,2
4129,4129,"Brié-et-Angonnes, Le Replat",45.1204,5.78156,,,REPLAT,2
4130,4130,"Brié-et-Angonnes, Le Replat",45.12069,5.78154,,,REPLAT,2
4131,4131,"Brié-et-Angonnes, L'Olympe",45.11776,5.78282,,,BRIECOLE,2
4132,4132,"Brié-et-Angonnes, L'Olympe",45.11784,5.78285,,,BRIECOLE,2
4133,4133,"Brié-et-Angonnes, Mont Rolland",45.1154,5.78391,,,BRIE,2
4134,4134,"Brié-et-Angonnes, Mont Rolland",45.11528,5.78405,,,BRIE,2
4135,4135,"Brié-et-Angonnes, Brié Église",45.11072,5.78716,,,BRIEGLIS,2
4136,4136,"Brié-et-Angonnes, Brié Église",45.11075,5.78724,,,BRIEGLIS,2
4139,4139,"Vizille, Chantefeuille",45.08066,5.77469,,,CHANTEFE,2
4141,4141,"Champagnier, Place du Laca",45.11374,5.72862,,,PLACA,2
4142,4142,"Champagnier, Place du Laca",45.11379,5.72863,,,PLACA,2
4143,4143,"Jarrie, Les Thévenets",45.11565,5.75101,,,THEVE,2
4144,4144,"Jarrie, Les Thévenets",45.11601,5.75051,,,THEVE,2
4145,4145,"Jarrie, Les Simianes",45.11605,5.75776,,,SIMIA,2
4146,4146,"Jarrie, Les Simianes",45.11612,5.75778,,,SIMIA,2
4147,4147,"Brié-et-Angonnes, Beaulieu",45.13853,5.77361,,,BEAULIEU,1
4148,4148,"Brié-et-Angonnes, Beaulieu",45.13855,5.77355,,,BEAULIEU,1
4149,4149,"Brié-et-Angonnes, Les Angonnes",45.13988,5.77611,,,ANGONNES,1
4150,4150,"Brié-et-Angonnes, Les Angonnes",45.13993,5.77617,,,ANGONNES,1
4152,4152,"Brié-et-Angonnes, Le Chollet",45.14025,5.78364,,,CHOLLET,1
4154,4154,"Herbeys, Herbeys Le Bourg",45.13871,5.79299,,,HEBOURG,1
4155,4155,"Eybens, François Quesnay",45.14855,5.73524,,,FRQUESNA,2
4156,4156,"Eybens, François Quesnay",45.14872,5.73539,,,FRQUESNA,2
4157,4157,"Corenc, Col de Vence",45.23419,5.75118,,,COLVENCE,2
4158,4158,"Corenc, Col de Vence",45.23401,5.75107,,,COLVENCE,2
4159,4159,"Le Sappey-en-Chartreuse, Saint-Eynard",45.24924,5.76547,,,SAINTEYN,2
416,416,"Eybens, Odyssée",45.15357,5.7483,,,ODYSSEE,1
4160,4160,"Le Sappey-en-Chartreuse, Saint-Eynard",45.24926,5.76534,,,SAINTEYN,2
4161,4161,"Le Sappey-en-Chartreuse, Le Gouillat",45.25468,5.77104,,,LEGOUILL,2
4162,4162,"Le Sappey-en-Chartreuse, Le Gouillat",45.25474,5.77111,,,LEGOUILL,2
4163,4163,"Le Sappey-en-Chartreuse, Le Sappey-en-Chartreuse Place",45.25954,5.7773,,,PLACESAP,2
4164,4164,"Le Sappey-en-Chartreuse, Le Sappey-en-Chartreuse Place",45.25948,5.77706,,,PLACESAP,2
4165,4165,"Le Sappey-en-Chartreuse, Churut",45.26479,5.77752,,,CHURU,2
4166,4166,"Le Sappey-en-Chartreuse, Churut",45.26475,5.77743,,,CHURU,2
4167,4167,"Le Sappey-en-Chartreuse, Les Jonquilles",45.26498,5.77395,,,MOLLARSA,2
4168,4168,"Le Sappey-en-Chartreuse, Les Jonquilles",45.2651,5.77371,,,MOLLARSA,2
4169,4169,"Sarcenas, Sarcenas Le Village",45.27347,5.75853,,,SARCENA,2
417,417,"Eybens, Les Javaux",45.15041,5.74986,,,JAVAUX,1
4170,4170,"Sarcenas, Sarcenas Le Village",45.27339,5.75861,,,SARCENA,2
4172,4172,"Sarcenas, Pont du Croz",45.27669,5.75747,,,SARCROZ,2
4173,4173,"Sarcenas, Col de Porte",45.29021,5.76708,,,COLPORTE,2
4174,4174,"Sarcenas, Col de Porte",45.29001,5.76693,,,COLPORTE,2
4175,4175,"Quaix-en-Chartreuse, Le Bas de Quaix",45.25385,5.7021,,,BASQUAIX,2
4176,4176,"Quaix-en-Chartreuse, Le Bas de Quaix",45.25399,5.70142,,,BASQUAIX,2
4177,4177,"Quaix-en-Chartreuse, Le Barbet",45.25799,5.70805,,,BARBET,2
4178,4178,"Quaix-en-Chartreuse, Le Barbet",45.25801,5.70815,,,BARBET,2
4179,4179,"Quaix-en-Chartreuse, Bas de Petesset",45.25635,5.71059,,,BASPET,2
418,418,"Meylan, Haut-Meylan",45.21786,5.7779,,,HTMEYLAN,1
4180,4180,"Quaix-en-Chartreuse, Bas de Petesset",45.25637,5.7104,,,BASPET,2
4181,4181,"Quaix-en-Chartreuse, Quaix-en-Chartreuse Place",45.25298,5.71781,,,PLACEQUA,2
4182,4182,"Quaix-en-Chartreuse, Quaix-en-Chartreuse Place",45.25279,5.71794,,,PLACEQUA,2
4189,4189,"Quaix-en-Chartreuse, Roudier",45.24801,5.7316,,,ROUDIER,2
419,419,"Meylan, Haut-Meylan",45.21794,5.77833,,,HTMEYLAN,1
4190,4190,"Quaix-en-Chartreuse, Roudier",45.24812,5.73164,,,ROUDIER,2
4191,4191,"Quaix-en-Chartreuse, Sous La Frette",45.25032,5.73535,,,SOUSFRET,2
4192,4192,"Quaix-en-Chartreuse, Sous La Frette",45.25036,5.73532,,,SOUSFRET,2
4193,4193,"Quaix-en-Chartreuse, Bas de Mont-Quaix",45.25277,5.74181,,,BASMONT,2
4194,4194,"Quaix-en-Chartreuse, Bas de Mont-Quaix",45.25288,5.74174,,,BASMONT,2
4195,4195,"Quaix-en-Chartreuse, Mont-Quaix",45.25521,5.74303,,,MONTQUAI,2
4196,4196,"Quaix-en-Chartreuse, Mont-Quaix",45.25575,5.74284,,,MONTQUAI,2
4197,4197,"Quaix-en-Chartreuse, Fontvieille",45.2592,5.74507,,,FONVIEIL,2
4198,4198,"Quaix-en-Chartreuse, Fontvieille",45.2592,5.7449,,,FONVIEIL,2
4199,4199,"Quaix-en-Chartreuse, La Cime de Mont-Quaix",45.25735,5.7461,,,CIMEMONT,2
42,42,"Gières, Le Japin",45.18746,5.80706,,,LEJAPIN,1
420,420,"Meylan, La Foy",45.21681,5.77572,,,LAFOY,1
4200,4200,"Quaix-en-Chartreuse, La Cime de Mont-Quaix",45.25733,5.74609,,,CIMEMONT,2
4201,4201,"Vizille, Les Forges",45.07741,5.76853,,,LESFORGE,2
4202,4202,"Vizille, Les Forges",45.07708,5.76858,,,LESFORGE,2
4203,4203,"Vaulnaveys-le-Bas, Vaulnaveys-Le-Bas Le Village",45.10533,5.80038,,,VAULBAS,1
4204,4204,"Vaulnaveys-le-Bas, Vaulnaveys-Le-Bas Le Village",45.10549,5.80042,,,VAULBAS,1
4205,4205,"Vaulnaveys-le-Haut, Vaulnaveys-Le-Haut Le Village",45.11935,5.8111,,,VAULHAUT,1
4206,4206,"Vaulnaveys-le-Haut, Vaulnaveys-Le-Haut Le Village",45.11934,5.81099,,,VAULHAUT,1
4207,4207,"Vaulnaveys-le-Haut, Les Alberges",45.13085,5.81897,,,ALBERGES,1
421,421,"Meylan, La Foy",45.2171,5.77634,,,LAFOY,1
4210,4210,"Vaulnaveys-le-Haut, La Tuilerie",45.13598,5.82401,,,LATUILE,1
4211,4211,"Saint-Martin-d'Uriage, Uriage Gare",45.14399,5.82949,,,URIAGE,2
4212,4212,"Saint-Martin-d'Uriage, Uriage Gare",45.14395,5.82915,,,URIAGE,2
4219,4219,"Montchaboud, Montchaboud Le Village",45.09497,5.76482,,,MONTCHAV,2
422,422,"Corenc, Buclos",45.21581,5.77226,,,BUCLOS,1
4221,4221,"Vizille, Collège Les Mattons",45.0866,5.77482,,,COLMATTO,2
4222,4222,"Vizille, Collège Les Mattons",45.08654,5.77476,,,COLMATTO,2
4223,4223,"Vizille, Vizille Lycée",45.06923,5.76588,,,LTE,2
4224,4224,"Saint-Martin-le-Vinoux, 16 Août 1944",45.20412,5.7158,,,GUERIMAN,2
4225,4225,"Saint-Martin-le-Vinoux, 16 Août 1944",45.20417,5.71567,,,GUERIMAN,2
4226,4226,"Saint-Martin-le-Vinoux, Clos Saint-Martin",45.20503,5.71403,,,CLOSSTMA,2
4227,4227,"Saint-Martin-le-Vinoux, Clos Saint-Martin",45.20495,5.71402,,,CLOSSTMA,2
4228,4228,"Saint-Martin-le-Vinoux, Clos Gérard Gruel",45.20968,5.71052,,,CLOSGRUE,2
4229,4229,"Saint-Martin-le-Vinoux, Clos Gérard Gruel",45.20963,5.71062,,,CLOSGRUE,2
423,423,"Corenc, Buclos",45.2157,5.77164,,,BUCLOS,1
4230,4230,"Saint-Martin-le-Vinoux, La Banchardière",45.21714,5.7128,,,BANCHARD,2
4231,4231,"Saint-Martin-le-Vinoux, La Banchardière",45.21731,5.71283,,,BANCHARD,2
4232,4232,"Grenoble, Casamaures - Village",45.19896,5.71813,,,CASAVILL,1
4233,4233,"Grenoble, Casamaures - Village",45.19899,5.71799,,,CASAVILL,1
4236,4236,"Vizille, Les Allas",45.07547,5.7786,,,LESALLAS,1
4237,4237,"Vizille, Les Allas",45.07544,5.77841,,,LESALLAS,1
4238,4238,"Vizille, Les Corniers",45.08176,5.78758,,,CORNIERS,1
4239,4239,"Vizille, Les Corniers",45.08143,5.7875,,,CORNIERS,1
424,424,"Corenc, Les Oiseaux",45.21506,5.76867,,,OISEAUX,1
4240,4240,"Vizille, Le Pont du Mas",45.08665,5.78883,,,PONTMAS,1
4241,4241,"Vizille, Le Pont du Mas",45.08687,5.78901,,,PONTMAS,1
4242,4242,"Vaulnaveys-le-Bas, Les Travers",45.09133,5.79162,,,TRAVERS,1
4243,4243,"Vaulnaveys-le-Bas, Les Travers",45.09107,5.79159,,,TRAVERS,1
4244,4244,"Vaulnaveys-le-Bas, Chemin des Cottes",45.09398,5.79326,,,LEPLATRE,1
4245,4245,"Vaulnaveys-le-Bas, Chemin des Cottes",45.09384,5.79326,,,LEPLATRE,1
4246,4246,"Vaulnaveys-le-Bas, Maison Blanche",45.11181,5.80512,,,MAISON,1
4247,4247,"Vaulnaveys-le-Bas, Maison Blanche",45.11167,5.80489,,,MAISON,1
4248,4248,"Vaulnaveys-le-Haut, Marchandises",45.11483,5.80766,,,MARCHAND,1
4249,4249,"Vaulnaveys-le-Haut, Marchandises",45.11514,5.80809,,,MARCHAND,1
425,425,"Corenc, Les Oiseaux",45.21505,5.76853,,,OISEAUX,1
4250,4250,"Vaulnaveys-le-Haut, Ecole Jules Bruant",45.12172,5.8144,,,JBRUANT,1
4251,4251,"Vaulnaveys-le-Haut, Ecole Jules Bruant",45.12136,5.81416,,,JBRUANT,1
4252,4252,"Vaulnaveys-le-Haut, Les Guichards",45.12759,5.81678,,,GUICHARD,1
4253,4253,"Vaulnaveys-le-Haut, Les Guichards",45.12565,5.81687,,,GUICHARD,1
4254,4254,"Saint-Martin-d'Uriage, Route de Saint Martin",45.13926,5.82718,,,STMARTIN,2
4255,4255,"Saint-Martin-d'Uriage, Route de Saint Martin",45.13934,5.82735,,,STMARTIN,2
4256,4256,"Saint-Martin-d'Uriage, Croisement 6",45.15287,5.8254,,,CROISEM,2
4257,4257,"Saint-Martin-d'Uriage, Croisement 6",45.15293,5.82555,,,CROISEM,2
4258,4258,"Saint-Martin-d'Uriage, Les Peiffendes",45.15716,5.8224,,,PEIFFEND,2
4259,4259,"Saint-Martin-d'Uriage, Les Peiffendes",45.15686,5.82304,,,PEIFFEND,2
426,426,"Corenc, Eygala",45.21385,5.7646,,,EYGALA,1
4262,4262,"Venon, Le Chenil",45.1631,5.8123,,,LECHENIL,1
4263,4263,"Saint-Martin-d'Uriage, Le Chenil",45.1631,5.81305,,,LECHENIL,1
4264,4264,"Gières, Les Terrats",45.16879,5.79359,,,TERRATS,2
4265,4265,"Gières, Les Terrats",45.16915,5.79295,,,TERRATS,2
4266,4266,"Gières, La Combe",45.17413,5.78992,,,LACOMBE,2
4267,4267,"Gières, La Combe",45.1741,5.79002,,,LACOMBE,2
427,427,"Corenc, Eygala",45.21377,5.76431,,,EYGALA,1
4276,4276,"Proveysieux, Planfay Combaleyre",45.27744,5.71591,,,COMBALEY,2
4277,4277,"Proveysieux, Planfay Combaleyre",45.27741,5.71585,,,COMBALEY,2
4278,4278,"Saint-Égrève, Bellevue",45.24406,5.69244,,,BELLEVU,2
4279,4279,"Saint-Égrève, Bellevue",45.24417,5.69253,,,BELLEVU,1
4280,4280,"Grenoble, Esclangon",45.19126,5.70683,,,ESCLANGO,2
4281,4281,"Grenoble, Esclangon",45.19158,5.7065,,,ESCLANGO,1
4282,4282,"Saint-Égrève, Champy",45.23991,5.69158,,,CHAMPY,2
4283,4283,"Saint-Égrève, Champy",45.23992,5.69165,,,CHAMPY,2
4284,4284,"Seyssins, Le Prisme",45.16666,5.69115,,,PRISME,2
4285,4285,"Seyssins, Le Prisme",45.16669,5.69134,,,PRISME,2
4288,4288,"Mont-Saint-Martin, Colavière",45.27237,5.67606,,,COLAVIER,2
4289,4289,"Mont-Saint-Martin, Colavière",45.27232,5.6761,,,COLAVIER,2
429,429,"Corenc, Corenc Mairie",45.21019,5.75279,,,CORENCMA,1
4292,4292,"Vaulnaveys-le-Haut, Les Alberges",45.13148,5.81903,,,ALBERGES,1
4293,4293,"Sassenage, Chamechaude",45.20548,5.6833,,,CHAMECHA,2
4296,4296,"Corenc, La Garenne",45.22679,5.76549,,,GARENNE,2
4297,4297,"La Tronche, Cimetière du Grand Sablon",45.19251,5.74551,,,CIMETIGS,1
4299,4299,"La Tronche, La Tronche Hôpital",45.20173,5.74248,,,TRONCHOP,2
43,43,"Gières, Champrondet",45.18578,5.80285,,,CHAMPRON,1
430,430,"Corenc, Montfleury",45.21219,5.75757,,,MONTFLEU,1
4300,4300,"Grenoble, Stade Lesdiguières",45.16468,5.71066,,,STADLESD,1
4301,4301,"Grenoble, Stade Lesdiguières",45.16437,5.71062,,,STADLESD,1
4302,4302,"Vif, La Valonne",45.05027,5.67157,,,LAVALONE,1
4303,4303,"Vif, La Valonne",45.05031,5.67129,,,LAVALONE,1
4305,4305,"Grenoble, Alliés",45.17338,5.71422,,,ALLIES,1
4306,4306,"Grenoble, Alliés",45.17331,5.71397,,,ALLIES,1
4307,4307,"Grenoble, Vallier - Libération",45.17908,5.71613,,,VALLIBE,1
4308,4308,"Grenoble, Vallier - Libération",45.17857,5.71577,,,VALLIBE,1
4309,4309,"Échirolles, Centre du graphisme",45.14178,5.71788,,,GRAPH,2
4310,4310,"Échirolles, Centre du graphisme",45.14186,5.71816,,,GRAPH,2
4312,4312,"Le Pont-de-Claix, ZI des Iles",45.13853,5.69449,,,ZILES,2
4313,4313,"Le Pont-de-Claix, 120 Toises",45.13626,5.69496,,,120TOISE,2
4314,4314,"Eybens, Pré au Crêt",45.14405,5.7401,,,PREAUCR,2
4315,4315,"Eybens, Pré au Crêt",45.14413,5.74053,,,PREAUCR,2
4316,4316,"Eybens, Les Saules",45.1617,5.74164,,,SAULES,2
4317,4317,"Eybens, Les Saules",45.16196,5.74182,,,SAULES,2
4318,4318,"Grenoble, Les Géants",45.16101,5.73969,,,PLGEANTS,2
4319,4319,"Eybens, Les Géants",45.16091,5.73965,,,PLGEANTS,2
432,432,"Corenc, Corenc Mairie",45.21013,5.75255,,,CORENCMA,1
4321,4321,"Grenoble, Victor Hugo",45.1887,5.72533,,,VICTHUGO,2
4331,4331,"Grenoble, Docteur Martin",45.18738,5.72832,,,DRMARTIN,2
4332,4332,"Grenoble, Docteur Martin",45.18737,5.72797,,,DRMARTIN,2
4334,4334,"Vizille, Ecoles Joliot-Curie",45.08404,5.77517,,,EJCURIE,2
4335,4335,"Vizille, Ecoles Joliot-Curie",45.084,5.7751,,,EJCURIE,2
4336,4336,"Vizille, Camping",45.08593,5.77126,,,CAMPVIZ,2
4337,4337,"Vizille, Camping",45.08569,5.77121,,,CAMPVIZ,2
4338,4338,"Vizille, Vénaria",45.08187,5.77163,,,VENARIA,2
4339,4339,"Vizille, Vénaria",45.08177,5.77171,,,VENARIA,2
4340,4340,"Vizille, L'Alliance",45.08152,5.76865,,,ALLIANCE,2
4341,4341,"Vizille, L'Alliance",45.08166,5.76868,,,ALLIANCE,2
4342,4342,"Vizille, Parc Vöhringen",45.07888,5.76947,,,VOHRIGEN,2
4343,4343,"Vizille, Parc Vöhringen",45.07888,5.7694,,,VOHRIGEN,2
4344,4344,"Jarrie, Jarrie Gare",45.08563,5.74255,,,GAREJARR,2
4345,4345,"Jarrie, Jarrie Gare",45.08563,5.74262,,,GAREJARR,2
4346,4346,"Champ-sur-Drac, Pont de Champ",45.0875,5.73031,,,PONTCN,2
4347,4347,"Champ-sur-Drac, Pont de Champ",45.08771,5.73056,,,PONTCN,2
4348,4348,"Champ-sur-Drac, Espace Navarre",45.08662,5.73067,,,ROMANCHE,2
4349,4349,"Champ-sur-Drac, Espace Navarre",45.08675,5.73053,,,ROMANCHE,2
435,435,"La Tronche, Grande Tronche",45.20704,5.74578,,,GDTRONCH,1
4350,4350,"Champ-sur-Drac, Zola - Mairie",45.08261,5.73371,,,SALLEZOL,2
4351,4351,"Champ-sur-Drac, Zola - Mairie",45.08258,5.73377,,,SALLEZOL,2
4352,4352,"Champ-sur-Drac, Le Pavillon",45.08045,5.73445,,,ECOLELP,2
4353,4353,"Champ-sur-Drac, Le Pavillon",45.08038,5.73441,,,ECOLELP,2
4354,4354,"Champ-sur-Drac, Marcel Paul",45.07745,5.73156,,,GONNADIE,2
4355,4355,"Champ-sur-Drac, Marcel Paul",45.07748,5.73175,,,GONNADIE,2
4356,4356,"Champ-sur-Drac, Léo Lagrange",45.08448,5.73474,,,LEOLA,2
4357,4357,"Champ-sur-Drac, Léo Lagrange",45.0845,5.73478,,,LEOLA,2
4359,4359,"Champ-sur-Drac, La Melle",45.07071,5.72724,,,LAMELLE,2
4360,4360,"Champ-sur-Drac, ZA La Plaine",45.0683,5.7232,,,CHAMPSD,2
4361,4361,"Saint-Égrève, Grange Haute",45.2456,5.69576,,,GRANG,2
4362,4362,"Saint-Égrève, Grange Haute",45.24563,5.69476,,,GRANG,2
4364,4364,"Venon, Les Puis",45.17202,5.81624,,,PUIS,2
4365,4365,"Grenoble, Groupe Hospitalier Mutualiste",45.18122,5.71027,,,CLINMUT,2
4367,4367,"Vif, Rivalta",45.05325,5.67771,,,VIFGEND,2
4368,4368,"Vif, Rivalta",45.05308,5.67742,,,VIFGEND,2
4369,4369,"Varces-Allières-et-Risset, Les Platanes",45.08933,5.6777,,,PLATANES,2
437,437,"La Tronche, Jules Rey",45.20658,5.74278,,,JULESREY,1
4370,4370,"Varces-Allières-et-Risset, Les Platanes",45.0891,5.67748,,,PLATANES,2
4371,4371,"Varces-Allières-et-Risset, L'Oriel",45.08967,5.68303,,,ORIEL,2
4377,4377,"Champ-sur-Drac, Grand Verger",45.07387,5.72972,,,GDVERGER,2
438,438,"La Tronche, Jules Rey",45.20649,5.74237,,,JULESREY,1
4381,4381,"Le Pont-de-Claix, Edmée Chandon",45.13677,5.70806,,,CHANDON,2
4382,4382,"Le Pont-de-Claix, Edmée Chandon",45.1368,5.70808,,,CHANDON,2
4383,4383,"Grenoble, Durant-Savoyat",45.1988,5.71015,,,DURANT,1
4384,4384,"Grenoble, Durant-Savoyat",45.19872,5.71035,,,DURANT,1
44,44,"Gières, Pied de Gières",45.18388,5.79852,,,PIEDGIER,1
441,441,"La Tronche, Bastille",45.20461,5.73787,,,BASTILLE,1
443,443,"La Tronche, Petite Tronche",45.20212,5.73442,,,PTTRONCH,1
444,444,"La Tronche, Petite Tronche",45.20195,5.73416,,,PTTRONCH,1
447,447,"Grenoble, Saint-Laurent",45.19798,5.73263,,,STLAUREN,1
448,448,"Grenoble, Saint-Laurent",45.19802,5.73257,,,STLAUREN,1
45,45,"Gières, Pied de Gières",45.18381,5.79849,,,PIEDGIER,1
4508,4508,"Grenoble, Saint-Bruno",45.18836,5.71365,,,STBRUNO,1
4509,4509,"Grenoble, Saint-Bruno",45.18834,5.71405,,,STBRUNO,1
451,451,"Grenoble, Condorcet",45.18576,5.71934,,,CONDORCE,1
4510,4510,"Grenoble, Berriat-Le Magasin",45.1888,5.7065,,,BERRIAT,1
4511,4511,"Grenoble, Berriat-Le Magasin",45.18879,5.70692,,,BERRIAT,1
4515,4515,"Fontaine, Louis Maisonnat",45.18983,5.6938,,,MAISONNA,1
4518,4518,"Fontaine, Charles Michels",45.19405,5.67994,,,CHARLMIC,1
4519,4519,"Fontaine, Charles Michels",45.19398,5.68011,,,CHARLMIC,1
452,452,"Grenoble, Condorcet",45.18577,5.71892,,,CONDORCE,1
4520,4520,"Fontaine, La Poya",45.19707,5.67254,,,LAPOYA,1
4521,4521,"Fontaine, La Poya",45.19731,5.67221,,,LAPOYA,1
4522,4522,"Montbonnot-Saint-Martin, Pré Millet",45.22158,5.81285,,,PREMILL,2
4526,4526,"Montbonnot-Saint-Martin, Pré Millet",45.22176,5.81309,,,PREMILL,2
4527,4527,"Montbonnot-Saint-Martin, INRIA",45.21752,5.80742,,,INRIA,2
4528,4528,"Montbonnot-Saint-Martin, INRIA",45.2177,5.80784,,,INRIA,2
4529,4529,"Montbonnot-Saint-Martin, Baudonniere",45.21447,5.80777,,,BEAUDONI,2
4530,4530,"Montbonnot-Saint-Martin, Baudonniere",45.21457,5.80776,,,BEAUDONI,2
454,454,"Grenoble, D'Alembert",45.18422,5.71064,,,ALEMBERT,1
455,455,"Grenoble, Vallier - Docteur Calmette",45.1805,5.71127,,,DRCALME,1
4550,4550,"Gières, Gières Gare - Universités",45.18546,5.78537,,,GIERGARE,1
4551,4551,"Gières, Gières Gare - Universités",45.18535,5.78549,,,GIERGARE,1
4552,4552,"Gières, Plaine des Sports",45.18741,5.78476,,,PLAINEDS,1
4553,4553,"Gières, Plaine des Sports",45.18751,5.78493,,,PLAINEDS,1
4558,4558,"Saint-Martin-d'Hères, Gabriel Fauré - MUSE",45.19165,5.76404,,,GABFAURE,1
4559,4559,"Saint-Martin-d'Hères, Gabriel Fauré - MUSE",45.19179,5.76405,,,GABFAURE,1
4562,4562,"Saint-Martin-d'Hères, Neyrpic - Belledonne",45.18653,5.75706,,,NEYRBELL,1
4563,4563,"Saint-Martin-d'Hères, Neyrpic - Belledonne",45.18689,5.75686,,,NEYRBELL,1
4564,4564,"Saint-Martin-d'Hères, Péri - Brossolette",45.1876,5.75258,,,PERIBROS,1
4565,4565,"Saint-Martin-d'Hères, Péri - Brossolette",45.18783,5.75123,,,PERIBROS,1
4566,4566,"Grenoble, Flandrin - Valmy",45.18697,5.74457,,,VALMY,1
4567,4567,"Grenoble, Flandrin - Valmy",45.18712,5.7445,,,FLANVALM,1
4572,4572,"La Tronche, La Tronche Hôpital",45.20091,5.74165,,,TRONCHOP,1
4574,4574,"Grenoble, Ile Verte",45.19681,5.73607,,,ILEVERTE,1
4575,4575,"Grenoble, Ile Verte",45.19659,5.73575,,,ILEVERTE,1
4596,4596,"La Tronche, Grand Sablon",45.19884,5.7503,,,GRDSABLO,2
4600,4600,"Grenoble, Chavant",45.18451,5.7318,,,CHAVANT,1
4601,4601,"Grenoble, Chavant",45.18455,5.73151,,,CHAVANT,1
4602,4602,"Grenoble, Gustave Rivet",45.1822,5.72821,,,GUSTRIVE,1
4603,4603,"Grenoble, Gustave Rivet",45.18247,5.72795,,,GUSTRIVE,1
4604,4604,"Grenoble, Foch - Ferrié",45.18071,5.72286,,,FOCHFERI,1
4605,4605,"Grenoble, Foch - Ferrié",45.18099,5.72275,,,FOCHFERI,1
4606,4606,"Grenoble, Vallier - Libération",45.18019,5.7158,,,VALLJAUR,1
4608,4608,"Grenoble, Vallier - Docteur Calmette",45.17999,5.71099,,,DRCALMET,1
4609,4609,"Grenoble, Vallier - Docteur Calmette",45.18028,5.71113,,,DRCALME,1
4612,4612,"Seyssinet-Pariset, Seyssinet-Pariset Hôtel de Ville",45.17985,5.69707,,,SEYHDV,1
4613,4613,"Seyssinet-Pariset, Seyssinet-Pariset Hôtel de Ville",45.18038,5.69592,,,SEYHDV,1
4614,4614,"Seyssinet-Pariset, Fauconnière",45.17668,5.69415,,,FAUCONNI,1
4615,4615,"Seyssinet-Pariset, Fauconnière",45.17684,5.69399,,,FAUCONNI,1
4616,4616,"Seyssinet-Pariset, Grand Pré",45.17183,5.69412,,,GRANDPRE,1
4617,4617,"Seyssinet-Pariset, Grand Pré",45.17142,5.69391,,,GRANDPRE,1
4618,4618,"Seyssins, Mas des Iles",45.16776,5.6941,,,MASDESIL,1
4619,4619,"Seyssins, Mas des Iles",45.16771,5.69397,,,MASDESIL,1
4622,4622,"Grenoble, Alsace-Lorraine",45.18874,5.71916,,,ALSACELO,1
4623,4623,"Grenoble, Alsace-Lorraine",45.18835,5.71919,,,ALSACELO,1
4625,4625,"Grenoble, Félix Viallet",45.1907,5.7177,,,FELIXVIA,1
4626,4626,"Grenoble, Félix Viallet",45.1907,5.7177,,,FELIXVIA,1
4627,4627,"Grenoble, Gares",45.19094,5.71557,,,GARESNCF,1
4628,4628,"Grenoble, Docteur Mazet",45.19127,5.72153,,,DRMAZET,1
4629,4629,"Grenoble, Docteur Mazet",45.19132,5.72253,,,DRMAZET,1
463,463,"Fontanil-Cornillon, Rafour",45.24899,5.66692,,,RAFOUR,1
4630,4630,"Grenoble, Victor Hugo",45.18953,5.72498,,,VICTHUGO,1
4631,4631,"Grenoble, Victor Hugo",45.18904,5.7254,,,VICTHUGO,1
4632,4632,"Grenoble, Docteur Martin",45.18789,5.72678,,,DRMARTIN,1
4633,4633,"Grenoble, Docteur Martin",45.18727,5.72731,,,DRMARTIN,1
4634,4634,"Grenoble, Chavant",45.18505,5.73237,,,CHAVANT,1
4635,4635,"Grenoble, Chavant",45.18483,5.73246,,,CHAVANT,1
4637,4637,"Grenoble, Albert 1° de Belgique",45.18144,5.73163,,,ALB1BELG,1
4639,4639,"Grenoble, Mounier",45.17892,5.73167,,,MOUNIER,1
4641,4641,"Grenoble, MC2: Maison de la Culture",45.17347,5.73178,,,MCCARGO,1
4643,4643,"Grenoble, Malherbe",45.16897,5.73301,,,MALHERBE,1
4645,4645,"Grenoble, Reynoard",45.16348,5.72862,,,REYNOARD,1
4647,4647,"Grenoble, Le Mail",45.16108,5.72957,,,LEMAIL,1
4649,4649,"Grenoble, Grand'Place",45.15922,5.73247,,,GRDPLACE,1
4668,4668,"Seyssins, Rue de la Lune",45.15554,5.67224,,,LALUNE,2
4671,4671,"Seyssins, Rue de la Lune",45.15541,5.67228,,,LALUNE,2
4674,4674,"Grenoble, Oxford",45.20578,5.6995,,,PRESQUIL,1
4675,4675,"Grenoble, Oxford",45.20611,5.69959,,,PRESQUIL,1
4676,4676,"Saint-Martin-le-Vinoux, Saint-Martin-le-Vinoux Hôtel de Ville",45.20815,5.70702,,,MAIRIESM,1
4678,4678,"Grenoble, Stade Lesdiguières",45.1639,5.71101,,,STADLESD,1
4679,4679,"Grenoble, Stade Lesdiguières",45.16384,5.7108,,,STADLESD,1
4680,4680,"Seyssinet-Pariset, Bouchayer - Hôtel de Ville",45.18076,5.69438,,,BOUCHDV,2
4681,4681,"Seyssinet-Pariset, Bouchayer - Hôtel de Ville",45.18118,5.69445,,,BOUCHDV,2
4682,4682,"Seyssinet-Pariset, Seyssinet-Pariset Hôtel de Ville",45.18037,5.69526,,,SEYHDV,2
4684,4684,"Grenoble, Vallier - Catane",45.17998,5.70628,,,VALLCATA,2
4685,4685,"Échirolles, Auguste Delaune",45.14336,5.71423,,,ADELAUNE,1
4686,4686,"Échirolles, Auguste Delaune",45.14341,5.71427,,,ADELAUNE,1
4687,4687,"Seyssinet-Pariset, Belvédère",45.1765,5.68821,,,BELVEDER,2
4688,4688,"Seyssinet-Pariset, Belvédère",45.17676,5.68853,,,BELVEDER,2
4691,4691,"Fontanil-Cornillon, Le Fontanil Cimetière",45.25886,5.66361,,,FONTCIM,2
4692,4692,"Fontanil-Cornillon, Le Fontanil Cimetière",45.25883,5.66352,,,FONTCIM,2
4697,4697,"Sarcenas, La Prairie",45.29459,5.76565,,,LAPRAIRI,2
47,47,"Meylan, Montlivet",45.22998,5.78981,,,MONTLIVE,1
471,471,"Meylan, Haut-Meylan",45.21845,5.77908,,,HTMEYLAN,1
472,472,"Saint-Égrève, Karben",45.24219,5.67143,,,KARBEN,1
473,473,"Saint-Égrève, Karben",45.24207,5.67119,,,KARBEN,1
4737,4737,"Jarrie, Les Chaberts",45.10764,5.74939,,,CHABER,2
4738,4738,"Jarrie, Les Chaberts",45.10757,5.7495,,,CHABER,2
474,474,"Saint-Égrève, La Monta",45.238,5.68861,,,LAMONTA,1
4743,4743,"Seyssinet-Pariset, Murailles",45.17825,5.69178,,,LAMURAIL,2
4744,4744,"Seyssinet-Pariset, Murailles",45.17844,5.6921,,,LAMURAIL,2
4746,4746,"Jarrie, Le Plâtre",45.11771,5.74779,,,LEPLATR,1
4747,4747,"Jarrie, Le Plâtre",45.11775,5.7479,,,LEPLATR,1
4748,4748,"Mont-Saint-Martin, La Rivoire",45.26869,5.6686,,,LARIVO,2
4749,4749,"Mont-Saint-Martin, La Rivoire",45.26874,5.66854,,,LARIVO,2
475,475,"Saint-Égrève, Les Bonnais",45.24004,5.67297,,,BONNAIS,1
4750,4750,"Grenoble, Vallier - Catane",45.18019,5.70646,,,VALLCATA,2
4753,4753,"Saint-Martin-le-Vinoux, La Buisseratière",45.22311,5.7177,,,BUIS,1
4754,4754,"Saint-Martin-le-Vinoux, La Buisseratière",45.22308,5.71778,,,BUIS,1
476,476,"Saint-Égrève, Cuvilleux",45.2349,5.68768,,,CUVILLEU,1
478,478,"Saint-Égrève, Visancourt",45.23317,5.68606,,,VISANCOU,1
480,480,"Saint-Égrève, Moutonnées",45.22868,5.68397,,,MOUTONNE,1
481,481,"Saint-Égrève, Muret",45.22612,5.6864,,,MURET,1
4811,4811,"Corenc, Monument",45.21702,5.75367,,,MONUMENT,2
4812,4812,"Corenc, Monument",45.217,5.7536,,,MONUMENT,2
4815,4815,"Saint-Martin-le-Vinoux, Le Reposoir",45.20979,5.71648,,,REPOSOIR,1
4816,4816,"Saint-Martin-le-Vinoux, Le Reposoir",45.20945,5.71644,,,REPOSOIR,1
4817,4817,"Seyssinet-Pariset, Les Combes",45.16794,5.67864,,,LECOMB,2
4853,4853,"Saint-Georges-de-Commiers, St-G.-de-Commiers Gare",45.04363,5.70174,,,STGCOMMI,2
4854,4854,"Jarrie, Le Vernet Croix",45.09651,5.74021,,,VERNET,2
4855,4855,"Jarrie, Le Vernet Croix",45.09645,5.73991,,,VERNET,2
4856,4856,"Jarrie, Les Charbonnaux",45.10068,5.74242,,,CHARBON,2
4857,4857,"Jarrie, Les Charbonnaux",45.10093,5.74211,,,CHARBON,2
4858,4858,"Jarrie, Maupertuis",45.10554,5.74636,,,MAUPERTJ,2
4859,4859,"Jarrie, Maupertuis",45.10561,5.74633,,,MAUPERTJ,2
4862,4862,"Jarrie, André Malraux",45.09462,5.74417,,,ANMAL,2
4863,4863,"Jarrie, André Malraux",45.09434,5.74374,,,ANMAL,2
487,487,"Meylan, Champ Rochas",45.20711,5.75833,,,CHAMROC,1
4874,4874,"Grenoble, Alsace-Lorraine",45.18837,5.7193,,,ALSACELO,2
4877,4877,"Grenoble, Casamaures - Village",45.19899,5.71765,,,CASAVILL,1
489,489,"Grenoble, Madeleine",45.18491,5.74324,,,MADELEIN,1
4893,4893,"Échirolles, Essarts - La Butte",45.15637,5.71905,,,ESSARTS,2
4895,4895,"Grenoble, Gare Routière",45.19287,5.71419,,,GAROUTIE,2
4898,4898,"Quaix-en-Chartreuse, Quaix-en-Chartreuse Village",45.25346,5.71992,,,ECOLE,2
49,49,"Grenoble, Place Cymaise",45.195,5.72917,,,PLACECYM,1
490,490,"Grenoble, Jeanne d'Arc",45.18191,5.74579,,,JEANNARC,1
4900,4900,"Venon, Cul Froid",45.17007,5.80865,,,CULFROID,1
4902,4902,"Venon, La Frênaie",45.17338,5.79514,,,FRENAIE,1
4905,4905,"Vizille, Place du Château",45.0751,5.77218,,,CHAT,1
4906,4906,"Vizille, Place du Château",45.07509,5.77205,,,CHAT,1
4908,4908,"Fontaine, Place du Marché Cachin",45.19559,5.69083,,,PLACMARC,2
4909,4909,"Fontaine, Les Écrins",45.1975,5.68632,,,ECRINS,2
491,491,"Grenoble, Grand Châtelet",45.18183,5.74852,,,GDCHATEL,1
4910,4910,"Fontaine, Les Écrins",45.19753,5.68631,,,ECRINS,1
4911,4911,"Fontaine, Rue Pasteur",45.19433,5.69419,,,RUEPASTE,2
4912,4912,"Fontaine, Rue Pasteur",45.19438,5.69417,,,RUEPASTE,1
4913,4913,"Seyssinet-Pariset, Bergès - Vercors",45.18435,5.68994,,,BERGVERC,2
4914,4914,"Meylan, Ancienne Mairie",45.21787,5.77981,,,ANCMAIRI,2
4915,4915,"Meylan, Ancienne Mairie",45.21795,5.77956,,,ANCMAIRI,2
4918,4918,"Saint-Égrève, Chemin Fiancey",45.22864,5.69171,,,FIANCEY,2
4919,4919,"Saint-Égrève, Chemin Fiancey",45.22859,5.69174,,,FIANCEY,2
492,492,"Meylan, Champ Rochas",45.20744,5.75903,,,CHAMROC,1
4920,4920,"Proveysieux, La Chiaise",45.26117,5.69831,,,CHIAISE,2
4921,4921,"Proveysieux, La Chiaise",45.26114,5.69833,,,CHIAISE,2
4922,4922,"Saint-Égrève, Rocher d'Escalade",45.24377,5.6792,,,ROCHERES,2
4923,4923,"Saint-Égrève, Rocher d'Escalade",45.24375,5.67901,,,ROCHERES,2
4924,4924,"Saint-Égrève, Gavanière",45.24126,5.68166,,,GAVANIER,2
4925,4925,"Saint-Égrève, Gavanière",45.24109,5.6817,,,GAVANIER,2
4928,4928,"Échirolles, Navis",45.15627,5.70842,,,NAVIS,2
4929,4929,"Échirolles, Navis",45.15602,5.7082,,,NAVIS,2
493,493,"Saint-Martin-d'Hères, Edmond Rostand",45.17446,5.75432,,,EDROSTAN,1
4930,4930,"Échirolles, Ecureuil",45.14261,5.70383,,,ECUREUIL,2
4931,4931,"Échirolles, Ecureuil",45.14255,5.70369,,,ECUREUIL,2
4932,4932,"Grenoble, Oxford",45.20672,5.69832,,,PRESQUIL,2
4933,4933,"Grenoble, Oxford",45.20688,5.69849,,,PRESQUIL,2
4934,4934,"Seyssins, Clinique - Portail",45.16201,5.67406,,,CLINDAU,2
4936,4936,"Le Pont-de-Claix, Iles de Mars",45.13168,5.69998,,,ILESMARS,2
4937,4937,"Le Pont-de-Claix, Iles de Mars",45.13197,5.70026,,,ILESMARS,2
4939,4939,"Quaix-en-Chartreuse, Route de Saint-Egrève",45.25482,5.70488,,,ROUSTEGR,2
494,494,"Saint-Martin-d'Hères, Etienne Grappe",45.17206,5.75713,,,ETIEGRAP,1
4940,4940,"Quaix-en-Chartreuse, Route de Saint-Egrève",45.25488,5.7048,,,ROUSTEGR,2
4942,4942,"Le Pont-de-Claix, Marianne",45.13495,5.69291,,,MARIANNE,2
4943,4943,"Montbonnot-Saint-Martin, Pré de l'Eau",45.22373,5.81917,,,PREDEAU,2
4944,4944,"Montbonnot-Saint-Martin, Pré de l'Eau",45.22385,5.81978,,,PREDEAU,2
4947,4947,"Meylan, Carronnerie - Ile d'Amour",45.20115,5.7592,,,CARONRIE,2
4949,4949,"Saint-Martin-d'Hères, Condillac - Universités",45.18938,5.77441,,,CONDIUNI,1
495,495,"Saint-Martin-d'Hères, Potié",45.17088,5.75859,,,POTIE,1
4955,4955,"Gières, Universités Biologie",45.19168,5.77583,,,BIOLOGIE,1
4956,4956,"Gières, Universités Biologie",45.19177,5.77591,,,BIOLOGIE,1
4959,4959,"Vif, Vif Gare",45.04824,5.68573,,,VIFGARE,2
496,496,"Saint-Martin-d'Hères, Croix du Pâtre",45.16828,5.7627,,,CXPATRE,1
4960,4960,"Vif, Vif Gare",45.04851,5.68541,,,VIFGARE,2
4962,4962,"Grenoble, Victor Hugo",45.18999,5.72444,,,VICTHUGO,2
4965,4965,"Saint-Martin-d'Hères, Croix du Pâtre",45.16677,5.76334,,,CXPATRE,2
4971,4971,"Saint-Martin-d'Hères, Condillac - Universités",45.1893,5.77452,,,CONDIUNI,1
4972,4972,"Fontaine, Rue de la Liberté",45.19109,5.69641,,,RUEDELAL,1
500,500,"Saint-Martin-d'Hères, Glaïeuls",45.16964,5.76358,,,GLAIEULS,1
501,501,"Saint-Martin-d'Hères, Saint-Martin-d'Hères Village",45.16512,5.76552,,,SMHVILLA,1
502,502,"Saint-Martin-d'Hères, Saint-Martin-d'Hères Village",45.16492,5.76527,,,SMHVILLA,1
503,503,"Saint-Martin-d'Hères, Les Alloves",45.1719,5.76493,,,ALLOVES,1
5032,5032,"Saint-Martin-d'Hères, Maison Communale",45.18412,5.75414,,,MAISONCO,1
5033,5033,"Saint-Martin-d'Hères, Maison Communale",45.1839,5.7541,,,MAISONCO,1
5034,5034,"Saint-Martin-d'Hères, Edouard Vaillant",45.17916,5.75539,,,EDVAILLA,1
5035,5035,"Saint-Martin-d'Hères, Edouard Vaillant",45.17929,5.75535,,,EDVAILLA,1
5036,5036,"Saint-Martin-d'Hères, Parc Jo Blanchon",45.17585,5.75681,,,BLANCHON,1
5037,5037,"Saint-Martin-d'Hères, Parc Jo Blanchon",45.17593,5.75681,,,BLANCHON,1
5040,5040,"Saint-Martin-le-Vinoux, St M.le Vinoux - Mairie",45.20785,5.70653,,,STMARTVI,2
5041,5041,"Saint-Martin-le-Vinoux, St M le Vinoux - Mairie",45.20792,5.70664,,,STMARTVI,2
5042,5042,"Grenoble, Annie Fratellini - Esplanade",45.19802,5.71816,,,ESPLANAD,2
5043,5043,"Grenoble, Annie Fratellini - Esplanade",45.19803,5.71825,,,ESPLANAD,2
5044,5044,"Grenoble, Alsace-Lorraine",45.1891,5.71926,,,ALSACELO,2
5045,5045,"Grenoble, Alsace-Lorraine",45.189,5.71928,,,ALSACELO,2
5046,5046,"Grenoble, Condorcet",45.18553,5.71821,,,CONDORCE,2
5047,5047,"Grenoble, Condorcet",45.18551,5.71825,,,CONDORCE,2
5058,5058,"Grenoble, Marie-Louise Paris - CEA",45.20124,5.70584,,,CEACAMB,1
5059,5059,"Grenoble, Marie-Louise Paris - CEA",45.20121,5.70589,,,CEACAMB,1
5063,5063,"Saint-Martin-d'Hères, Les Taillées - Universités",45.19073,5.75931,,,TAILLEES,1
5064,5064,"Saint-Martin-d'Hères, Les Taillées - Universités",45.19073,5.75931,,,TAILLEES,1
5071,5071,"Saint-Martin-le-Vinoux, Horloge",45.21384,5.69865,,,HORLOGE,2
5072,5072,"Saint-Martin-le-Vinoux, Horloge",45.21372,5.69856,,,HORLOGE,2
5073,5073,"Saint-Martin-le-Vinoux, Néron",45.21762,5.69387,,,NERON,2
5074,5074,"Saint-Martin-le-Vinoux, Néron",45.21759,5.69358,,,NERON,2
5075,5075,"Saint-Égrève, Fiancey - Prédieu",45.22311,5.68911,,,PREDIEU,2
5076,5076,"Saint-Égrève, Fiancey - Prédieu",45.22296,5.68885,,,PREDIEU,2
5079,5079,"Saint-Égrève, Pont de Vence",45.23008,5.68264,,,PTVENCE,2
5080,5080,"Saint-Égrève, Pont de Vence",45.2299,5.68249,,,PTVENCE,2
5081,5081,"Saint-Égrève, La Pinéa - St Robert",45.2357,5.6758,,,PINEA,2
5082,5082,"Saint-Égrève, La Pinéa - St Robert",45.23557,5.67568,,,PINEA,2
5083,5083,"Saint-Égrève, Karben",45.24234,5.67122,,,KARBEN,2
5084,5084,"Saint-Égrève, Karben",45.24224,5.67105,,,KARBEN,2
5085,5085,"Fontanil-Cornillon, Rafour",45.24817,5.66677,,,RAFOUR,2
5086,5086,"Fontanil-Cornillon, Rafour",45.24808,5.66657,,,RAFOUR,2
5087,5087,"Fontanil-Cornillon, Fontanil - Palluel",45.25514,5.66163,,,FONTANIL,2
5088,5088,"Fontanil-Cornillon, Fontanil - Palluel",45.2549,5.66158,,,FONTANIL,2
51,51,"Claix, Les Roses",45.11774,5.66797,,,ROSES,1
511,511,"Grenoble, Clos d'Or",45.16955,5.72322,,,CLOSDOR,1
512,512,"Grenoble, Arago",45.19625,5.71247,,,ARAGO,1
514,514,"Grenoble, Edison",45.18183,5.74091,,,EDISON,1
515,515,"Grenoble, Suzanne Noël - Les Bains",45.17821,5.74263,,,LESBAINS,1
516,516,"Saint-Martin-d'Hères, Pierre Loti",45.16664,5.74646,,,PIERRELO,1
517,517,"Saint-Martin-d'Hères, Paul Eluard",45.16512,5.74887,,,PAULELUA,1
518,518,"Eybens, Bel Air",45.16106,5.75525,,,BELAIR,1
519,519,"Poisat, Robespierre",45.15985,5.75718,,,ROBESPIE,1
52,52,"Claix, Les Roses",45.11791,5.66739,,,ROSES,1
520,520,"Poisat, Centre Socio-Culturel",45.15821,5.75974,,,CENSOCIO,1
521,521,"Domène, Chenevières",45.20673,5.82734,,,CHENEVIE,1
522,522,"Domène, Le Prieuré",45.20489,5.83576,,,PRIEURE,1
523,523,"Domène, Le Prieuré",45.20457,5.8361,,,PRIEURE,1
525,525,"Domène, Les Arnauds",45.20683,5.84788,,,ARNAUDS,1
526,526,"Domène, L'Oratoire",45.19802,5.83362,,,ORATOIRE,1
527,527,"Domène, Les Mortes",45.19638,5.82911,,,MORTES,1
528,528,"Murianette, Les Rivets",45.19483,5.82455,,,RIVETS,1
529,529,"Murianette, Les Rivets",45.19488,5.82488,,,RIVETS,1
530,530,"Murianette, Le Bourg",45.19187,5.81646,,,BOURG,1
531,531,"Seyssins, Garlettes",45.14524,5.67678,,,GARLETTE,1
533,533,"Gières, Le Sonnant",45.18142,5.78156,,,SONNANT,1
534,534,"Seyssins, Garlettes",45.14531,5.67687,,,CIMETIGA,1
535,535,"Saint-Martin-d'Hères, Champ Roman",45.18473,5.76846,,,CHAMPROM,1
536,536,"Saint-Martin-d'Hères, Neyrpic - Belledonne",45.18672,5.75629,,,NEYRBELL,1
54,54,"Venon, Le Chapon",45.17096,5.82185,,,LECHAPON,1
544,544,"Seyssins, L'Argoud",45.15386,5.67997,,,ARGOUD,1
545,545,"Seyssins, L'Argoud",45.15433,5.6803,,,ARGOUD,1
56,56,"Venon, Le Reynet",45.17001,5.81366,,,LEREYNET,1
560,560,"Corenc, Batonnière",45.22728,5.75888,,,CHEMBATO,1
563,563,"Corenc, Batonnière",45.22733,5.75876,,,CHEMBATO,1
57,57,"Grenoble, Musée Dauphinois",45.19497,5.72614,,,MUSEEDAU,1
575,575,"Fontaine, Curie - Vercors",45.19188,5.69505,,,CURIVERC,1
586,586,"Veurey-Voroize, Chemin du Parc",45.27467,5.60645,,,CHATEAUX,1
587,587,"Veurey-Voroize, Chemin du Parc",45.27449,5.60613,,,CHATEAUX,1
588,588,"Veurey-Voroize, Petit Châtelard",45.27657,5.61239,,,PTCHATEL,1
589,589,"Veurey-Voroize, Petit Châtelard",45.27608,5.61213,,,PTCHATEL,1
59,59,"Échirolles, Danielle Casanova",45.14448,5.70071,,,CASANOVA,1
590,590,"Veurey-Voroize, Le Béryl",45.27487,5.61264,,,BERYL,1
591,591,"Veurey-Voroize, Le Béryl",45.2748,5.61283,,,BERYL,1
593,593,"Veurey-Voroize, Veurey Mairie",45.27305,5.61273,,,VEUREYMA,1
594,594,"Veurey-Voroize, Veurey Eglise",45.27225,5.61564,,,VEUREYEG,1
595,595,"Veurey-Voroize, Veurey Eglise",45.27242,5.61525,,,VEUREYEG,1
596,596,"Veurey-Voroize, Perrières",45.26209,5.6247,,,PERIERES,1
598,598,"Veurey-Voroize, Iles Cordées",45.25971,5.62608,,,ILESCORD,1
599,599,"Veurey-Voroize, La Cuche",45.25606,5.62814,,,LACUCHE,1
6,6,"La Tronche, Commandant Nal",45.20323,5.74535,,,COMMANAL,1
60,60,"Grenoble, Musée Dauphinois",45.19503,5.72611,,,MUSEEDAU,1
601,601,"Noyarey, Le Ruisset",45.24971,5.63181,,,RUISSET,1
602,602,"Noyarey, Bascule",45.24292,5.63217,,,NOYARBAS,1
603,603,"Noyarey, Saint-Jean",45.23891,5.63425,,,NOYARSTJ,1
604,604,"Noyarey, Chaulnes",45.23654,5.63811,,,CHAULNES,1
605,605,"Noyarey, Praparis - Les Roses",45.23226,5.64503,,,PRAPAROS,1
606,606,"Sassenage, Praparis Usine",45.22961,5.64924,,,PRAPARIS,1
607,607,"Sassenage, Les Engenières",45.21962,5.66033,,,ENGENIER,1
608,608,"Sassenage, Les Engenières",45.2196,5.66022,,,ENGENIER,1
610,610,"Sassenage, La Rollandière",45.21485,5.66123,,,ROLLANDI,1
612,612,"Sassenage, Place de la Libération",45.20671,5.66274,,,PLIBERAT,1
613,613,"Sassenage, Trefforine",45.20446,5.66499,,,TREFFORI,1
614,614,"Fontaine, Gérard Philipe",45.19647,5.67704,,,GERARPHI,1
615,615,"Fontaine, Rue des Alpes",45.19778,5.68027,,,RUEALPES,1
616,616,"Fontaine, Marat",45.19915,5.68284,,,MARAT,1
617,617,"Fontaine, Marat",45.19909,5.68281,,,MARAT,1
627,627,"La Tronche, Le Gorget",45.21532,5.74846,,,LEGORGET,1
628,628,"La Tronche, Le Gorget",45.21541,5.74903,,,LEGORGET,1
634,634,"Fontaine, Jules Guesde",45.19791,5.68878,,,JULESGUE,1
637,637,"Fontaine, Rue Pasteur",45.19465,5.69451,,,RUEPASTE,1
64,64,"Venon, Le Perroud",45.17254,5.81043,,,LEPERROU,1
641,641,"Seyssins, Le Bournet",45.15765,5.68975,,,BOURNET,1
642,642,"Seyssins, Le Bournet",45.15744,5.68999,,,BOURNET,1
643,643,"Seyssins, La Baume",45.1595,5.68969,,,LABAUME,1
644,644,"Seyssins, Marc Sangnier",45.16486,5.68915,,,MARCSANG,1
645,645,"Seyssins, Marc Sangnier",45.16493,5.68918,,,MARCSANG,1
646,646,"Seyssinet-Pariset, La Plaine",45.1724,5.69682,,,LAPLAINE,1
647,647,"Seyssinet-Pariset, L'Arche",45.17828,5.69699,,,CENTRSOC,1
649,649,"Saint-Martin-d'Hères, Les Alpilles",45.1879,5.76943,,,PROMOSOC,1
65,65,"Poisat, Centre Socio-Culturel",45.15827,5.75976,,,CENSOCIO,1
650,650,"Saint-Martin-d'Hères, Les Alpilles",45.18802,5.7695,,,PROMOSOC,1
653,653,"La Tronche, Le Rozan",45.20926,5.74226,,,LERONZA,1
654,654,"Saint-Martin-d'Hères, Bibliothèques Universitaires",45.19166,5.77038,,,BIBLIUNI,1
655,655,"La Tronche, Le Rozan",45.20925,5.74235,,,LERONZA,1
656,656,"Meylan, Saint-Mury",45.21937,5.78601,,,STMURY,1
658,658,"Meylan, Lycée du Grésivaudan - Bachais",45.21403,5.77904,,,LYCBACHA,1
662,662,"Saint-Martin-d'Hères, Bel Air",45.1611,5.75531,,,BELAIR,1
674,674,"Eybens, Général de Gaulle",45.16187,5.74501,,,DEGAULLE,1
675,675,"Eybens, Général de Gaulle",45.16148,5.74385,,,DEGAULLE,1
676,676,"Meylan, Maupertuis",45.21285,5.79719,,,MAUPERTU,1
677,677,"Meylan, Les Béalières",45.21153,5.7907,,,BEALIERE,1
68,68,"Venon, Sous-Perroud",45.1703,5.81077,,,SOUSPERO,1
6804,6804,"Vizille, Vizille Lycée",45.06942,5.76532,,,LTE,2
6805,6805,"Vizille, Vizille Lycée",45.06811,5.77015,,,LTE,2
6806,6806,"Vizille, Le Péage",45.05769,5.77101,,,PEAGEDEV,2
691,691,"Le Gua, La Pierre",44.98902,5.62164,,,LAPIERRE,1
692,692,"Miribel-Lanchâtre, Le Vernay",44.97015,5.60874,,,LEVERNAY,1
693,693,"Le Gua, Saint-Barthélémy",44.99995,5.62934,,,STBARTHE,1
694,694,"Le Gua, Saint-Barthélémy",44.99986,5.62946,,,STBARTHE,1
697,697,"Seyssins, Le Priou",45.15696,5.67871,,,LEPRIOU,1
7,7,"La Tronche, Musée Hébert",45.20564,5.74888,,,MUSHEBER,1
70,70,"Saint-Martin-le-Vinoux, L'Hermitage",45.21476,5.70442,,,LHERMITA,1
71,71,"Échirolles, Le Château",45.14704,5.72608,,,CHATEAU,1
715,715,"Grenoble, Louise Michel",45.16918,5.71258,,,LMICHEL,1
716,716,"Grenoble, Louise Michel",45.16955,5.71292,,,LMICHEL,1
72,72,"Échirolles, Le Château",45.14711,5.72619,,,CHATEAU,1
722,722,"Grenoble, Marielle Franco - Rondeau",45.16024,5.7096,,,RONDEAU,1
723,723,"Grenoble, Marielle Franco - Rondeau",45.1612,5.71009,,,RONDEAU,1
726,726,"Grenoble, Docteur Mazet",45.19128,5.72153,,,DRMAZET,1
727,727,"Grenoble, Docteur Mazet",45.19139,5.72258,,,DRMAZET,1
730,730,"La Tronche, Doyen Gosse",45.20138,5.75303,,,DOYENGOS,1
731,731,"Grenoble, Edmond Esmonin",45.15937,5.72662,,,EDMOESMO,1
732,732,"Grenoble, Christophe Turc",45.16137,5.72414,,,CHRISTUR,1
733,733,"Grenoble, Christophe Turc",45.16073,5.72403,,,CHRISTUR,1
734,734,"Grenoble, Village Olympique",45.16411,5.72404,,,VILLOLYM,1
735,735,"Grenoble, Village Olympique",45.16355,5.72393,,,VILLOLYM,1
736,736,"Grenoble, Vigny",45.16744,5.72338,,,VIGNY,1
737,737,"Grenoble, Vigny",45.16734,5.72335,,,VIGNY,1
738,738,"Grenoble, Clos d'Or",45.16949,5.72271,,,CLOSDOR,1
739,739,"Grenoble, Clos d'Or",45.16934,5.72311,,,CLOSDOR,1
74,74,"Venon, La Chênaie",45.17051,5.80746,,,LACHENAI,1
740,740,"Grenoble, Eugène Sue",45.17304,5.7246,,,EUGENESU,1
741,741,"Grenoble, Eugène Sue",45.17284,5.72476,,,EUGENESU,1
742,742,"Grenoble, Capuche",45.17659,5.72454,,,CAPUCHE,1
743,743,"Grenoble, Capuche",45.17607,5.7248,,,CAPUCHE,1
744,744,"Grenoble, Foch - Ferrié",45.18016,5.72339,,,FOCHFERI,1
745,745,"Grenoble, Foch - Ferrié",45.18044,5.72346,,,FOCHFERI,1
749,749,"Grenoble, Championnet",45.18539,5.7225,,,CHAMPION,1
75,75,"Saint-Martin-le-Vinoux, Levetière",45.22609,5.72541,,,LEVETIER,1
750,750,"Grenoble, Championnet",45.18554,5.72318,,,CHAMPION,1
753,753,"Grenoble, Docteur Martin",45.18787,5.72682,,,DRMARTIN,1
754,754,"Grenoble, Docteur Martin",45.18766,5.72684,,,DRMARTIN,1
758,758,"Grenoble, Les Essarts",45.15919,5.71352,,,LESESSAR,1
76,76,"Grenoble, Edmond Esmonin",45.15907,5.72674,,,EDMOESMO,1
760,760,"Grenoble, Beauvert",45.16417,5.71792,,,BEAUVERT,1
763,763,"Grenoble, Massenet",45.16771,5.72108,,,MASSENET,1
764,764,"Grenoble, Capuche",45.17582,5.72588,,,CAPUCHE,1
765,765,"Grenoble, Capuche",45.17615,5.72615,,,CAPUCHE,1
766,766,"Grenoble, Rue des Déportés",45.17791,5.72737,,,DEPORTES,1
768,768,"Grenoble, Rue des Déportés",45.17829,5.72771,,,DEPORTES,1
769,769,"Grenoble, Gustave Rivet",45.1817,5.72783,,,GUSTRIVE,1
774,774,"Saint-Martin-d'Hères, Galochère",45.17878,5.77315,,,GALOCHER,1
775,775,"Saint-Martin-d'Hères, Elsa Triolet",45.17958,5.77015,,,ELSATRIO,1
776,776,"Saint-Martin-d'Hères, Coli",45.18073,5.76596,,,COLI,1
777,777,"Saint-Martin-d'Hères, Portail Rouge",45.18136,5.76334,,,PORTAILR,1
778,778,"Saint-Martin-d'Hères, Portail Rouge",45.1814,5.76347,,,PORTAILR,1
779,779,"Saint-Martin-d'Hères, Cité Labeye",45.18222,5.76037,,,CITELABE,1
780,780,"Saint-Martin-d'Hères, Maison Communale",45.18395,5.75378,,,MAISONCO,1
781,781,"Saint-Martin-d'Hères, Maison Communale",45.18401,5.75376,,,MAISONCO,1
782,782,"Saint-Martin-d'Hères, Croix Rouge",45.18558,5.7479,,,CROIXROU,1
785,785,"Grenoble, Bir Hakeim",45.18886,5.73639,,,BIRHAKEI,1
786,786,"Grenoble, Bir Hakeim",45.18879,5.73676,,,BIRHAKEI,1
789,789,"Saint-Martin-d'Hères, Henri Wallon",45.17591,5.76456,,,HENRIWAL,1
79,79,"Échirolles, Stade",45.1435,5.72943,,,STADE,1
790,790,"Saint-Martin-d'Hères, 8 mai 1945",45.17106,5.75691,,,8MAI1945,1
791,791,"Saint-Martin-d'Hères, Zella Mehlis",45.16752,5.75421,,,ZELLAMEL,1
792,792,"Saint-Martin-d'Hères, Le Marais",45.16403,5.7507,,,LEMARAIS,1
793,793,"Grenoble, Maison des Anciens",45.15975,5.72325,,,MAISANCI,1
797,797,"Grenoble, Malherbe",45.16892,5.73308,,,MALHERBE,1
798,798,"Grenoble, Louis Jouvet",45.16987,5.73691,,,LOUISJOU,1
799,799,"Grenoble, Teisseire",45.17076,5.74031,,,TEISSEIR,1
8,8,"La Tronche, Centre Théologique",45.20617,5.75214,,,CENTHEOL,1
80,80,"Saint-Martin-le-Vinoux, Levetière",45.22614,5.72551,,,LEVETIER,1
800,800,"Grenoble, Teisseire",45.17081,5.74016,,,TEISSEIR,1
801,801,"Grenoble, Paul Cocat",45.17264,5.74578,,,PAULCOCA,1
802,802,"Grenoble, Palais de Justice - Gare",45.19125,5.71139,,,PALJUSTI,1
805,805,"Grenoble, Saint-Augustin",45.17817,5.7454,,,STAUGUST,1
806,806,"Grenoble, Bon Pasteur",45.17894,5.75161,,,BONPASTE,1
808,808,"Saint-Martin-d'Hères, Edouard Vaillant",45.17905,5.75493,,,EDVAILLA,1
814,814,"Grenoble, Hôtel de Police",45.1934,5.73617,,,HOPOLICE,1
815,815,"Grenoble, Mutualité",45.1907,5.73547,,,MUTUALIT,1
821,821,"Grenoble, Mallifaud",45.18042,5.73514,,,MALLIFAU,1
822,822,"Grenoble, Mallifaud",45.18033,5.73508,,,MALLIFAU,1
823,823,"Grenoble, Bajatière",45.1783,5.73616,,,BAJATIER,1
824,824,"Grenoble, Bajatière",45.17814,5.73614,,,BAJATIER,1
825,825,"Grenoble, Ponsard",45.17607,5.73726,,,PONSARD,1
826,826,"Grenoble, Ponsard",45.17597,5.7372,,,PONSARD,1
827,827,"Grenoble, Paul Claudel",45.17341,5.73857,,,PCLAUDEL,1
828,828,"Grenoble, Paul Claudel",45.17336,5.73851,,,PCLAUDEL,1
829,829,"Grenoble, Teisseire",45.17103,5.7398,,,TEISSEIR,1
83,83,"Saint-Martin-le-Vinoux, Lachal",45.22225,5.72467,,,LACHAL,1
830,830,"Grenoble, Teisseire",45.17091,5.73971,,,TEISSEIR,1
831,831,"Grenoble, Jean Racine",45.16754,5.74151,,,JRACINE,1
832,832,"Grenoble, Jean Racine",45.16683,5.74175,,,JRACINE,1
834,834,"Grenoble, Notre-Dame - Musée",45.19391,5.73216,,,NOTREDAM,1
835,835,"Grenoble, Notre-Dame - Musée",45.19411,5.73192,,,NOTREDAM,1
836,836,"Grenoble, Hôtel de Police",45.19409,5.73571,,,HOPOLICE,1
837,837,"Grenoble, Saint-Roch",45.19167,5.7379,,,STROCH,1
838,838,"Grenoble, Saint-Roch",45.19173,5.73799,,,STROCH,1
840,840,"Grenoble, Chorier - Saint-Bruno",45.18588,5.71363,,,STBRUNNC,1
842,842,"Le Gua, Prélenfrey Eglise",45.01693,5.61329,,,PRELENFR,1
845,845,"Grenoble, Champs-Elysées",45.17831,5.71056,,,CHAMPSEL,1
846,846,"Grenoble, Salengro",45.17557,5.70893,,,SALENGRO,1
850,850,"Grenoble, Anatole France",45.17209,5.70505,,,ANATFRAN,1
851,851,"Grenoble, Anatole France",45.17186,5.70495,,,ANATFRAN,1
853,853,"Grenoble, Cité Paul Mistral",45.16863,5.70487,,,CITEPMIS,1
854,854,"Grenoble, Cité Paul Mistral",45.16855,5.70479,,,CITEPMIS,1
855,855,"Grenoble, Bachelard",45.16669,5.70665,,,BACHELAR,1
856,856,"Grenoble, Bachelard",45.16718,5.7052,,,BACHELAR,1
859,859,"Grenoble, Verlaine",45.16193,5.71613,,,VERLAINE,1
860,860,"Grenoble, Verlaine",45.16162,5.71603,,,VERLAINE,1
862,862,"Saint-Égrève, Les Bonnais",45.23985,5.6728,,,BONNAIS,1
863,863,"Saint-Égrève, Moutonnées",45.22802,5.68429,,,MOUTONNE,1
872,872,"Grenoble, Madeleine",45.18515,5.74324,,,MADELEIN,1
873,873,"Grenoble, Jeanne d'Arc",45.18177,5.74518,,,JEANNARC,1
874,874,"Saint-Martin-d'Hères, Grand Châtelet",45.18194,5.74841,,,GDCHATEL,1
876,876,"Saint-Martin-d'Hères, Bon Pasteur",45.17939,5.75087,,,BONPASTE,1
877,877,"Grenoble, Bon Pasteur",45.17823,5.75147,,,BONPASTE,1
878,878,"Saint-Martin-d'Hères, Edmond Rostand",45.17441,5.75429,,,EDROSTAN,1
879,879,"Saint-Martin-d'Hères, Etienne Grappe",45.17213,5.75712,,,ETIEGRAP,1
88,88,"Saint-Martin-le-Vinoux, Lachal",45.22258,5.72475,,,LACHAL,1
880,880,"Saint-Martin-d'Hères, Potié",45.17089,5.75848,,,POTIE,1
881,881,"Saint-Martin-d'Hères, Croix du Pâtre",45.16821,5.76174,,,CXPATRE,1
882,882,"Saint-Martin-d'Hères, Glaïeuls",45.17006,5.76398,,,GLAIEULS,1
889,889,"Grenoble, Cité Jean Macé",45.1989,5.71095,,,CITEMACE,1
89,89,"Saint-Martin-le-Vinoux, Mas Caché",45.2177,5.72187,,,LEMASGAC,1
890,890,"Grenoble, Arago",45.19581,5.71288,,,ARAGO,1
892,892,"Grenoble, Gares",45.19155,5.71525,,,GARES,1
893,893,"Grenoble, Gares",45.19149,5.71514,,,GARES,1
894,894,"Grenoble, Félix Viallet",45.19068,5.71769,,,FELIXVIA,1
895,895,"Grenoble, Félix Viallet",45.19073,5.71847,,,FELIXVIA,1
896,896,"Grenoble, Auguste Ravier",45.18399,5.73965,,,AUGURAVI,1
897,897,"Grenoble, Auguste Ravier",45.18378,5.73885,,,AUGURAVI,1
898,898,"Grenoble, Clémenceau",45.18388,5.74107,,,CLEMENCE,1
8MAI1945,GEN8MAI1945,"Saint-Martin-d'Hères, 8 mai 1945",45.17106,5.75682,,1,,1
90,90,"Veurey-Voroize, La Cuche",45.25604,5.62804,,,LACUCHE,1
900,900,"Grenoble, Edison",45.18115,5.74129,,,EDISON,1
901,901,"Grenoble, Suzanne Noël - Les Bains",45.17889,5.74249,,,LESBAINS,1
902,902,"Grenoble, Paul Cocat",45.17196,5.74543,,,PAULCOCA,1
903,903,"Grenoble, Léon Jouhaux",45.16899,5.74444,,,LEONJOUH,1
904,904,"Grenoble, Léon Jouhaux",45.16928,5.74462,,,LEONJOUH,1
905,905,"Saint-Martin-d'Hères, Pierre Loti",45.16666,5.74656,,,PIERRELO,1
906,906,"Saint-Martin-d'Hères, Paul Eluard",45.16506,5.7491,,,PAULELUA,1
907,907,"Grenoble, Victor Hugo",45.18977,5.72454,,,VICTHUGO,1
909,909,"Saint-Martin-d'Hères, Clinique Belledonne",45.18591,5.76032,,,CLINBELD,1
910,910,"Saint-Martin-d'Hères, Clinique Belledonne",45.18598,5.76095,,,CLINBELD,1
915,915,"Sassenage, Place de la Libération",45.20682,5.66281,,,PLIBERAT,1
917,917,"Sassenage, Trefforine",45.2041,5.66524,,,TREFFORI,1
918,918,"Sassenage, Pré Fleury",45.20183,5.66763,,,PREFLEUR,1
919,919,"Sassenage, Pré Fleury",45.20145,5.66791,,,PREFLEUR,1
92,92,"Saint-Martin-le-Vinoux, Mas Caché",45.21735,5.72194,,,LEMASGAC,1
920,920,"Sassenage, Les Pies",45.19957,5.66989,,,LESPIES,1
921,921,"Sassenage, Les Pies",45.19952,5.66985,,,LESPIES,1
923,923,"Grenoble, Berriat-Le Magasin",45.18849,5.7058,,,BERRIAT,1
924,924,"Grenoble, Berriat-Le Magasin",45.18867,5.70591,,,BERRIAT,1
925,925,"Grenoble, Cémoi",45.1849,5.70564,,,CEMOI,1
926,926,"Grenoble, Cémoi",45.18495,5.70573,,,CEMOI,1
94,94,"Venon, Venon Mairie",45.17165,5.80482,,,VENONMAI,1
941,941,"Grenoble, Cité Jean Macé",45.19892,5.711,,,CITEMACE,1
945,945,"Grenoble, Alsace-Lorraine",45.18828,5.719,,,ALSACELO,1
948,948,"Grenoble, Cité Jean Macé",45.20038,5.71123,,,CITEMACE,1
96,96,"Venon, La Ville",45.17409,5.80262,,,LAVILLE,1
968,968,"La Tronche, Hôpital Michallon - Belledonne",45.1973,5.74707,,,HOPMICHA,1
969,969,"La Tronche, Hôpital Michallon - Belledonne",45.19707,5.74784,,,HOPMICHA,1
97,97,"Saint-Martin-le-Vinoux, La Gomma",45.21513,5.71914,,,LAGOMMA,1
971,971,"Eybens, Alpexpo",45.15449,5.73379,,,ALPEXPO,1
972,972,"Grenoble, Polesud - Alpexpo",45.15715,5.73384,,,POLESUD,1
973,973,"Eybens, Alpexpo",45.15422,5.73367,,,ALPEXPO,1
974,974,"Grenoble, Polesud - Alpexpo",45.15706,5.73368,,,POLESUD,1
976,976,"Seyssins, Seyssins Rondeau",45.16022,5.69369,,,SEYSROND,1
977,977,"Seyssins, Seyssins Rondeau",45.16036,5.69373,,,SEYSROND,1
984,984,"Saint-Égrève, Vence EcoParc",45.22745,5.66853,,,VENCEECO,1
985,985,"Saint-Égrève, Vence EcoParc",45.22773,5.66846,,,VENCEECO,1
987,987,"Le Gua, Le Gua Mairie",45.02219,5.64454,,,LEGUAMAI,1
988,988,"Le Gua, Le Gua Mairie",45.02211,5.64457,,,LEGUAMAI,1
989,989,"Le Gua, Les Rossets",45.01679,5.6408,,,ROSSETS,1
990,990,"Le Gua, Les Rossets",45.01657,5.64083,,,ROSSETS,1
991,991,"Le Gua, La Charrière",45.01277,5.61587,,,LACHARRI,1
992,992,"Le Gua, La Charrière",45.01286,5.61595,,,LACHARRI,1
993,993,"Le Gua, Les Faures",45.01439,5.61354,,,LESFAURE,1
994,994,"Le Gua, Les Faures",45.01447,5.61372,,,LESFAURE,1
995,995,"Le Gua, La Pierre",44.98916,5.62198,,,LAPIERRE,1
997,997,"Miribel-Lanchâtre, Cassoulet",44.98181,5.623,,,CASSOULE,1
998,998,"Miribel-Lanchâtre, Cassoulet",44.98229,5.62309,,,CASSOULE,1
999,999,"Miribel-Lanchâtre, Bayanne",44.98074,5.62288,,,BAYANNE,1
ABBEGREG,GENABBEGREG,"Grenoble, Abbé Grégoire",45.18388,5.71174,,1,,1
ADELAUNE,GENADELAUNE,"Échirolles, Auguste Delaune",45.14292,5.71527,,1,,1
AIGUIHEX,GENAIGUIHEX,"Meylan, Aiguinards-Hexagone",45.20556,5.76449,,1,,1
ALB1BELG,GENALB1BELG,"Grenoble, Albert 1er de Belgique",45.18168,5.73167,,1,,1
ALBERGES,GENALBERGES,"Vaulnaveys-le-Haut, Les Alberges",45.13148,5.81903,,1,,1
ALEGRANG,GENALEGRANG,"Vif, Allée des Granges",45.05795,5.68472,,1,,1
ALEMBERT,GENALEMBERT,"Grenoble, D'Alembert",45.18422,5.71064,,1,,1
ALLIANCE,GENALLIANCE,"Vizille, L'Alliance",45.08152,5.76865,,1,,1
ALLIES,GENALLIES,"Grenoble, Alliés",45.17398,5.71427,,1,,1
ALLOVES,GENALLOVES,"Saint-Martin-d'Hères, Les Alloves",45.17204,5.76518,,1,,1
ALPEXPO,GENALPEXPO,"Eybens, Alpexpo",45.15449,5.73379,,1,,1
ALSACELO,GENALSACELO,"Grenoble, Alsace-Lorraine",45.18911,5.7193,,1,,1
ANATFRAN,GENANATFRAN,"Grenoble, Anatole France",45.17186,5.70495,,1,,1
ANCIEMAI,GENANCIEMAI,"Fontaine, Ancienne Mairie",45.19272,5.67806,,1,,1
ANCIGARE,GENANCIGARE,"Seyssins, Ancienne Gare",45.15978,5.68178,,1,,1
ANCMAIRI,GENANCMAIRI,"Meylan, Ancienne Mairie",45.21793,5.77933,,1,,1
ANGONNES,GENANGONNES,"Brié-et-Angonnes, Les Angonnes",45.13993,5.77617,,1,,1
ANGUISSE,GENANGUISSE,"Saint-Martin-d'Hères, Anguisses",45.17782,5.77786,,1,,1
ANMAL,GENANMAL,"Jarrie, André Malraux",45.09462,5.74417,,1,,1
ARAGO,GENARAGO,"Grenoble, Arago",45.19709,5.71174,,1,,1
ARBERGES,GENARBERGES,"Seyssinet-Pariset, Aristide Bergès",45.18551,5.69465,,1,,1
ARGOUD,GENARGOUD,"Seyssins, L'Argoud",45.15433,5.68029,,1,,1
ARGOUGES,GENARGOUGES,"Grenoble, André Argouges",45.17537,5.74447,,1,,1
ARLEQUIN,GENARLEQUIN,"Grenoble, Arlequin",45.16359,5.73047,,1,,1
ARNAUDS,GENARNAUDS,"Domène, Les Arnauds",45.20683,5.84788,,1,,1
ARZELIER,GENARZELIER,"Le Gua, L'Arzelier",44.99692,5.60258,,1,,1
AUGUFERR,GENAUGUFERR,"Échirolles, Auguste Ferrier",45.14483,5.70962,,1,,1
AUGURAVI,GENAUGURAVI,"Grenoble, Auguste Ravier",45.18399,5.73965,,1,,1
AVREPUB,GENAVREPUB,"Bresson, Avenue de la République",45.14279,5.73589,,1,,1
BACHELAR,GENBACHELAR,"Grenoble, Bachelard",45.16681,5.70594,,1,,1
BAJATIER,GENBAJATIER,"Grenoble, Bajatière",45.17813,5.73614,,1,,1
BALMETTE,GENBALMETTE,"Claix, La Balmette",45.12521,5.68811,,1,,1
BALZAZ,GENBALZAZ,"Varces-Allières-et-Risset, Balzac",45.08728,5.69421,,1,,1
BANCHARD,GENBANCHARD,"Saint-Martin-le-Vinoux, La Banchardière",45.21726,5.71279,,1,,1
BARBET,GENBARBET,"Quaix-en-Chartreuse, Le Barbet",45.25801,5.70815,,1,,1
BARNA,GENBARNA,"Saint-Égrève, Collège Barnave",45.23097,5.69175,,1,,1
BASCULE,GENBASCULE,"Saint-Paul-de-Varces, La Bascule",45.07181,5.65496,,1,,1
BASMONT,GENBASMONT,"Quaix-en-Chartreuse, Bas de Mont-Quaix",45.25288,5.74174,,1,,1
BASPET,GENBASPET,"Quaix-en-Chartreuse, Bas de Petesset",45.25635,5.71059,,1,,1
BASQUAIX,GENBASQUAIX,"Quaix-en-Chartreuse, Le Bas de Quaix",45.25399,5.70142,,1,,1
BASTILLE,GENBASTILLE,"La Tronche, Bastille",45.20444,5.7376,,1,,1
BAUCHES,GENBAUCHES,"Claix, Les Bauches",45.11083,5.67865,,1,,1
BAYANNE,GENBAYANNE,"Miribel-Lanchâtre, Bayanne",44.97996,5.62235,,1,,1
BAYARD,GENBAYARD,"Échirolles, Bayard",45.14591,5.70478,,1,,1
BAZE,GENBAZE,"Proveysieux, Le Bazeau",45.26586,5.6998,,1,,1
BEALIERE,GENBEALIERE,"Meylan, Les Béalières",45.21153,5.7907,,1,,1
BEAU,GENBEAU,"Claix, Beau Dunois",45.12535,5.67234,,1,,1
BEAUDONI,GENBEAUDONI,"Montbonnot-Saint-Martin, Baudonniere",45.2145,5.80779,,1,,1
BEAULIEU,GENBEAULIEU,"Brié-et-Angonnes, Beaulieu",45.13855,5.77355,,1,,1
BEAUREVO,GENBEAUREVO,"Sassenage, Beaurevoir",45.21009,5.64861,,1,,1
BEAUSITE,GENBEAUSITE,"Seyssinet-Pariset, Beau Site",45.17591,5.69696,,1,,1
BEAUVERT,GENBEAUVERT,"Grenoble, Beauvert",45.16417,5.71792,,1,,1
BEAUVOIR,GENBEAUVOIR,"Seyssins, Beauvoir",45.15899,5.68325,,1,,1
BELAIR,GENBELAIR,"Eybens, Bel Air",45.16106,5.75525,,1,,1
BELLEDON,GENBELLEDON,"Saint-Égrève, Belledonne",45.22268,5.684,,1,,1
BELLEVU,GENBELLEVU,"Saint-Égrève, Bellevue",45.24406,5.69244,,1,,1
BELLEVUE,GENBELLEVUE,"Claix, Bellevue",45.11196,5.66548,,1,,1
BELVEDER,GENBELVEDER,"Seyssinet-Pariset, Belvédère",45.1765,5.68821,,1,,1
BERGVERC,GENBERGVERC,"Seyssinet-Pariset, Bergès - Vercors",45.18417,5.69071,,1,,1
BERIVIER,GENBERIVIER,"Meylan, Bérivière",45.21882,5.78312,,1,,1
BERLIOGN,GENBERLIOGN,"Varces-Allières-et-Risset, Berliognière",45.08998,5.69249,,1,,1
BERRIAT,GENBERRIAT,"Grenoble, Berriat-Le Magasin",45.18878,5.70588,,1,,1
BERYL,GENBERYL,"Veurey-Voroize, Le Béryl",45.2748,5.61283,,1,,1
BIBLIUNI,GENBIBLIUNI,"Gières, Bibliothèques Universitaires",45.19246,5.7709,,1,,1
BIOLLE,GENBIOLLE,"Saint-Égrève, La Biolle - Gare",45.23522,5.66953,,1,,1
BIOLOGIE,GENBIOLOGIE,"Gières, Universités - Biologie",45.19195,5.77474,,1,,1
BIRHAKEI,GENBIRHAKEI,"Grenoble, Bir Hakeim",45.18886,5.73639,,1,,1
BLANCFON,GENBLANCFON,"Sassenage, Blanc Fontaine",45.21064,5.65625,,1,,1
BLANCHON,GENBLANCHON,"Saint-Martin-d'Hères, Parc Jo Blanchon",45.17585,5.75684,,1,,1
BOISFRAN,GENBOISFRAN,"Saint-Ismier, Bois Français",45.22482,5.83768,,1,,1
BONNAIS,GENBONNAIS,"Saint-Égrève, Les Bonnais",45.24058,5.67257,,1,,1
BONPASTE,GENBONPASTE,"Grenoble, Bon Pasteur",45.17875,5.7509,,1,,1
BOUCHDV,GENBOUCHDV,"Seyssinet-Pariset, Bouchayer - Hôtel de Ville",45.18077,5.69437,,1,,1
BOULODRO,GENBOULODRO,"Claix, Boulodrome-Ecole",45.11962,5.66899,,1,,1
BOURG,GENBOURG,"Murianette, Le Bourg",45.19187,5.81647,,1,,1
BOURNET,GENBOURNET,"Seyssins, Le Bournet",45.15765,5.68975,,1,,1
BRESSON,GENBRESSON,"Bresson, Bresson Mairie",45.1377,5.74771,,1,,1
BRIE,GENBRIE,"Brié-et-Angonnes, Mont Rolland",45.11528,5.78405,,1,,1
BRIECOLE,GENBRIECOLE,"Brié-et-Angonnes, L'Olympe",45.11784,5.78285,,1,,1
BRIEGLIS,GENBRIEGLIS,"Brié-et-Angonnes, Brié Église",45.11119,5.78653,,1,,1
BRIOT,GENBRIOT,"Murianette, La Briot",45.19299,5.81948,,1,,1
BRUYERE,GENBRUYERE,"Grenoble, La Bruyère-Parc Jean Verlhac",45.16635,5.73118,,1,,1
BUCLOS,GENBUCLOS,"Corenc, Buclos",45.21581,5.77226,,1,,1
BUIS,GENBUIS,"Saint-Martin-le-Vinoux, La Buisseratière",45.22308,5.71778,,1,,1
BUSSEROL,GENBUSSEROL,"Meylan, Busserolles",45.20884,5.79756,,1,,1
CAMPVIZ,GENCAMPVIZ,"Vizille, Camping",45.08593,5.77127,,1,,1
CANAL,GENCANAL,"Saint-Georges-de-Commiers, Le Canal",45.05212,5.7104,,1,,1
CAP38,GENCAP38,"Saint-Égrève, Cap 38",45.24018,5.66619,,1,,1
CAPDESH,GENCAPDESH,"Saint-Égrève, Cap des H'",45.21732,5.68127,,1,,1
CAPUCHE,GENCAPUCHE,"Grenoble, Capuche",45.17614,5.72539,,1,,1
CARINA,GENCARINA,"Saint-Martin-d'Hères, Le Carina",45.16238,5.76305,,1,,1
CARONBAS,GENCARONBAS,"La Tronche, La Carronnerie Basse",45.20114,5.75855,,1,,1
CARONRIE,GENCARONRIE,"La Tronche, Carronnerie - Ile d'Amour",45.20116,5.7588,,1,,1
CARRE,GENCARRE,"Saint-Martin-d'Uriage, Carrefour du Replat",45.16155,5.85101,,1,,1
CARRIERE,GENCARRIERE,"Claix, Carrière",45.11472,5.69018,,1,,1
CASANOVA,GENCASANOVA,"Échirolles, Danielle Casanova",45.14448,5.70071,,1,,1
CASAVILL,GENCASAVILL,"Grenoble, Casamaures - Village",45.19902,5.71747,,1,,1
CASBONNE,GENCASBONNE,"Grenoble, Caserne de Bonne",45.18506,5.72533,,1,,1
CASSOULE,GENCASSOULE,"Miribel-Lanchâtre, Cassoulet",44.98229,5.62309,,1,,1
CEACAMB,GENCEACAMB,"Grenoble, Marie-Louise Paris - CEA",45.20216,5.70431,,1,,1
CEDRE,GENCEDRE,"Corenc, Le Cèdre",45.20783,5.75552,,1,,1
CEMOI,GENCEMOI,"Grenoble, Cémoi",45.18495,5.70573,,1,,1
CENSOCIO,GENCENSOCIO,"Poisat, Centre Socio-Culturel",45.15886,5.75948,,1,,1
CENTHEOL,GENCENTHEOL,"La Tronche, Centre Théologique",45.20617,5.75215,,1,,1
CENTRESU,GENCENTRESU,"Seyssins, Grand Pré - Centre Sud",45.17084,5.69457,,1,,1
CENTRSOC,GENCENTRSOC,"Seyssinet-Pariset, L'Arche",45.17817,5.69702,,1,,1
CHABER,GENCHABER,"Jarrie, Les Chaberts",45.10734,5.74936,,1,,1
CHALET,GENCHALET,"Vif, Le Chalet",45.04333,5.6644,,1,,1
CHAMBORD,GENCHAMBORD,"Varces-Allières-et-Risset, Chambord",45.08519,5.66714,,1,,1
CHAMECHA,GENCHAMECHA,"Sassenage, Chamechaude",45.2051,5.68348,,1,,1
CHAMP,GENCHAMP,"Montchaboud, Champ Clocher",45.09222,5.7702,,1,,1
CHAMPFIL,GENCHAMPFIL,"Eybens, Champ Fila",45.15627,5.75505,,1,,1
CHAMPION,GENCHAMPION,"Grenoble, Championnet",45.18554,5.72318,,1,,1
CHAMPLAR,GENCHAMPLAR,"Meylan, Champlars",45.22023,5.77982,,1,,1
CHAMPROM,GENCHAMPROM,"Saint-Martin-d'Hères, Champ Roman",45.18438,5.76824,,1,,1
CHAMPRON,GENCHAMPRON,"Gières, Champrondet",45.18578,5.80285,,1,,1
CHAMPSD,GENCHAMPSD,"Champ-sur-Drac, ZA La Plaine",45.06841,5.72308,,1,,1
CHAMPSEL,GENCHAMPSEL,"Grenoble, Champs-Elysées",45.17794,5.71025,,1,,1
CHAMPY,GENCHAMPY,"Saint-Égrève, Champy",45.23991,5.69158,,1,,1
CHAMROC,GENCHAMROC,"Meylan, Champ Rochas",45.20744,5.75903,,1,,1
CHANDON,GENCHANDON,"Le Pont-de-Claix, Edmée Chandon",45.13671,5.7083,,1,,1
CHANTEFE,GENCHANTEFE,"Vizille, Chantefeuille",45.08058,5.77486,,1,,1
CHANTERA,GENCHANTERA,"Claix, La Chanteraie",45.11012,5.66548,,1,,1
CHARBON,GENCHARBON,"Jarrie, Les Charbonnaux",45.10097,5.74215,,1,,1
CHARLMIC,GENCHARLMIC,"Fontaine, Charles Michels",45.19385,5.68009,,1,,1
CHARME,GENCHARME,"Proveysieux, Col de la Charmette",45.32189,5.74005,,1,,1
CHARMETT,GENCHARMETT,"Fontaine, Charmettes",45.1974,5.69355,,1,,1
CHARRIER,GENCHARRIER,"Claix, Charrières",45.11599,5.68888,,1,,1
CHAT,GENCHAT,"Vizille, Place du Château",45.07572,5.77221,,1,,1
CHATBEAU,GENCHATBEAU,"Sassenage, Château de Beaurevoir",45.21234,5.65202,,1,,1
CHATEAU,GENCHATEAU,"Échirolles, Le Château",45.14732,5.72671,,1,,1
CHATEAUX,GENCHATEAUX,"Veurey-Voroize, Chemin du Parc",45.27449,5.60613,,1,,1
CHATELAR,GENCHATELAR,"Veurey-Voroize, Châtelard",45.27353,5.60481,,1,,1
CHATELIE,GENCHATELIE,"Eybens, La Châtelière",45.16217,5.74903,,1,,1
CHATSASS,GENCHATSASS,"Sassenage, Château de Sassenage",45.21224,5.66167,,1,,1
CHAULNES,GENCHAULNES,"Noyarey, Chaulnes",45.23655,5.63811,,1,,1
CHAUMES,GENCHAUMES,"Claix, Les Chaumes",45.1266,5.67411,,1,,1
CHAUMETI,GENCHAUMETI,"Meylan, Chaumetière",45.21244,5.77061,,1,,1
CHAUMIER,GENCHAUMIER,"Seyssins, Hameau des Chaumières",45.1547,5.68938,,1,,1
CHAVANT,GENCHAVANT,"Grenoble, Chavant",45.18466,5.73177,,1,,1
CHEABBE,GENCHEABBE,"Claix, Chemin de l'Abbé",45.13521,5.66842,,1,,1
CHEMBATO,GENCHEMBATO,"Corenc, Batonnière",45.22733,5.75876,,1,,1
CHEMI,GENCHEMI,"Saint-Martin-le-Vinoux, Canet",45.21055,5.70612,,1,,1
CHEMVER,GENCHEMVER,"Saint-Égrève, Chemin Vert",45.2366,5.69236,,1,,1
CHENE,GENCHENE,"Saint-Martin-d'Uriage, La Chenevarie",45.17334,5.85764,,1,,1
CHENES,GENCHENES,"Sassenage, Les Chênes",45.21809,5.65343,,1,,1
CHENEVIE,GENCHENEVIE,"Domène, Chenevières",45.20673,5.82734,,1,,1
CHIAISE,GENCHIAISE,"Proveysieux, La Chiaise",45.26117,5.69831,,1,,1
CHIEZE,GENCHIEZE,"Claix, La Chièze",45.12118,5.68251,,1,,1
CHOLLET,GENCHOLLET,"Brié-et-Angonnes, Le Chollet",45.14025,5.78364,,1,,1
CHOPIN,GENCHOPIN,"Saint-Martin-d'Hères, Chopin",45.16605,5.75142,,1,,1
CHORCOND,GENCHORCOND,"Grenoble, Estacade",45.18593,5.71744,,1,,1
CHRISTUR,GENCHRISTUR,"Grenoble, Christophe Turc",45.16137,5.72414,,1,,1
CHURU,GENCHURU,"Le Sappey-en-Chartreuse, Churut",45.26474,5.77743,,1,,1
CIMEBOUR,GENCIMEBOUR,"Vif, La Cime du Bourg",45.04812,5.66739,,1,,1
CIMEMONT,GENCIMEMONT,"Quaix-en-Chartreuse, La Cime de Mont-Quaix",45.25733,5.74609,,1,,1
CIMENTIE,GENCIMENTIE,"Claix, Les Cimentiers",45.13047,5.68357,,1,,1
CIMESEYP,GENCIMESEYP,"Seyssinet-Pariset, Cimetière",45.16967,5.68346,,1,,1
CIMETIGA,GENCIMETIGA,"Seyssins, Garlettes",45.14524,5.67678,,1,,1
CIMETIGS,GENCIMETIGS,"La Tronche, Cimetière du Grand Sablon",45.19247,5.74534,,1,,1
CITEINTE,GENCITEINTE,"Grenoble, Cité Internationale",45.19508,5.7112,,1,,1
CITELABE,GENCITELABE,"Saint-Martin-d'Hères, Cité Labeye",45.18234,5.7598,,1,,1
CITEMACE,GENCITEMACE,"Grenoble, Cité Jean Macé",45.19996,5.7105,,1,,1
CITEPMIS,GENCITEPMIS,"Grenoble, Cité Paul Mistral",45.16855,5.70479,,1,,1
CLAIXMAI,GENCLAIXMAI,"Claix, Claix Mairie",45.12025,5.67247,,1,,1
CLEMENCE,GENCLEMENCE,"Grenoble, Clémenceau",45.18388,5.74107,,1,,1
CLINBELD,GENCLINBELD,"Saint-Martin-d'Hères, Clinique Belledonne",45.18598,5.76095,,1,,1
CLINDAU,GENCLINDAU,"Seyssins, Clinique - Portail",45.16201,5.67406,,1,,1
CLINMUT,GENCLINMUT,"Grenoble, Groupe Hospitalier Mutualiste",45.18126,5.71028,,1,,1
CLOSDOMI,GENCLOSDOMI,"Le Pont-de-Claix, Clos Dominique",45.13546,5.70127,,1,,1
CLOSDOR,GENCLOSDOR,"Grenoble, Clos d'Or",45.16955,5.72321,,1,,1
CLOSGRUE,GENCLOSGRUE,"Saint-Martin-le-Vinoux, Clos Gérard Gruel",45.20968,5.71052,,1,,1
CLOSJUV,GENCLOSJUV,"Jarrie, Clos Jouvin",45.09693,5.74585,,1,,1
CLOSSTMA,GENCLOSSTMA,"Saint-Martin-le-Vinoux, Clos Saint-Martin",45.20503,5.71402,,1,,1
COLARZEL,GENCOLARZEL,"Le Gua, Col de l'Arzelier",44.99089,5.59541,,1,,1
COLAVIER,GENCOLAVIER,"Mont-Saint-Martin, Colavière",45.27237,5.67606,,1,,1
COLCLEME,GENCOLCLEME,"Saint-Martin-le-Vinoux, Col de Clémencières",45.23437,5.72578,,1,,1
COLCOMBO,GENCOLCOMBO,"Claix, Col de Comboire",45.14004,5.6732,,1,,1
COLI,GENCOLI,"Saint-Martin-d'Hères, Coli",45.18073,5.76596,,1,,1
COLLSAUL,GENCOLLSAUL,"Eybens, Collège des Saules",45.16143,5.74306,,1,,1
COLMANHE,GENCOLMANHE,"Échirolles, Colonel Manhès",45.14647,5.70177,,1,,1
COLMATTO,GENCOLMATTO,"Vizille, Collège Les Mattons",45.08654,5.77467,,1,,1
COLPORTE,GENCOLPORTE,"Sarcenas, Col de Porte",45.28982,5.76704,,1,,1
COLVENCE,GENCOLVENCE,"Corenc, Col de Vence",45.234,5.75107,,1,,1
COMB,GENCOMB,"Saint-Martin-d'Uriage, Combeloup",45.1697,5.84306,,1,,1
COMBALEY,GENCOMBALEY,"Proveysieux, Planfay Combaleyre",45.27742,5.71585,,1,,1
COMBE,GENCOMBE,"Échirolles, Pied de la Combe",45.13446,5.71471,,1,,1
COMBOIRE,GENCOMBOIRE,"Échirolles, Comboire",45.14583,5.69081,,1,,1
COMMANAL,GENCOMMANAL,"La Tronche, Commandant Nal",45.20324,5.74535,,1,,1
COMMANDE,GENCOMMANDE,"Échirolles, Commanderie",45.14363,5.73336,,1,,1
COMPLEXE,GENCOMPLEXE,"Sassenage, Complexe Sportif",45.21142,5.67272,,1,,1
CONDAM,GENCONDAM,"Saint-Georges-de-Commiers, Les Condamines",45.04472,5.70732,,1,,1
CONDIUNI,GENCONDIUNI,"Saint-Martin-d'Hères, Condillac - Universités",45.18915,5.77445,,1,,1
CONDORCE,GENCONDORCE,"Grenoble, Condorcet",45.18553,5.71823,,1,,1
CONRADKI,GENCONRADKI,"Saint-Martin-le-Vinoux, Conrad Kilian",45.20592,5.70944,,1,,1
CORENCMA,GENCORENCMA,"Corenc, Corenc Mairie",45.20974,5.75272,,1,,1
CORENCVI,GENCORENCVI,"Corenc, Corenc Village",45.21983,5.76229,,1,,1
CORNEDOR,GENCORNEDOR,"Corenc, La Corne d'Or",45.21809,5.76046,,1,,1
CORNIERS,GENCORNIERS,"Vizille, Les Corniers",45.08176,5.78758,,1,,1
CORP,GENCORP,"Saint-Martin-d'Uriage, Corps d'Uriage",45.17815,5.86484,,1,,1
COSSEY,GENCOSSEY,"Claix, Cossey",45.13895,5.67006,,1,,1
COTEAU,GENCOTEAU,"Claix, Le Coteau",45.12669,5.6867,,1,,1
COTESASS,GENCOTESASS,"Sassenage, Les Côtes",45.21006,5.64749,,1,,1
COUBERTI,GENCOUBERTI,"Domène, Coubertin",45.20004,5.83528,,1,,1
CROI,GENCROI,"Saint-Martin-d'Uriage, La Croix de Pinet",45.17245,5.87398,,1,,1
CROISEM,GENCROISEM,"Saint-Martin-d'Uriage, Croisement 6",45.15287,5.8254,,1,,1
CROIX,GENCROIX,"Saint-Paul-de-Varces, La Croix",45.07055,5.64494,,1,,1
CROIXROU,GENCROIXROU,"Saint-Martin-d'Hères, Croix Rouge",45.18558,5.7479,,1,,1
CRXROLLA,GENCRXROLLA,"Claix, La Croix Rolland",45.1292,5.67128,,1,,1
CULFROID,GENCULFROID,"Venon, Cul Froid",45.17006,5.80858,,1,,1
CURIVERC,GENCURIVERC,"Fontaine, Curie - Vercors",45.19188,5.69505,,1,,1
CUVILLEU,GENCUVILLEU,"Saint-Égrève, Cuvilleux",45.2349,5.68768,,1,,1
CXCIBENS,GENCXCIBENS,"Meylan, Croix de Cibeins",45.226,5.7842,,1,,1
CXMONTFL,GENCXMONTFL,"Corenc, Croix de Montfleury",45.20879,5.74934,,1,,1
CXPATRE,GENCXPATRE,"Saint-Martin-d'Hères, Croix du Pâtre",45.16821,5.76174,,1,,1
CXRAMEAU,GENCXRAMEAU,"Meylan, Croix des Rameaux",45.22374,5.78177,,1,,1
DEGAULLE,GENDEGAULLE,"Eybens, Général de Gaulle",45.16163,5.74447,,1,,1
DENPAPIN,GENDENPAPIN,"Échirolles, Denis Papin",45.13832,5.71307,,1,,1
DEPORTES,GENDEPORTES,"Grenoble, Rue des Déportés",45.17829,5.72771,,1,,1
DETOURBE,GENDETOURBE,"Meylan, La Détourbe",45.22278,5.7927,,1,,1
DOMENEMA,GENDOMENEMA,"Domène, Domène Mairie",45.20152,5.83821,,1,,1
DOYENGOS,GENDOYENGOS,"La Tronche, Doyen Gosse",45.20138,5.75303,,1,,1
DRAC,GENDRAC,"Claix, Mémorial",45.12265,5.69102,,1,,1
DRAC2,GENDRAC2,"Échirolles, Drac",45.14895,5.69397,,1,,1
DRCALME,GENDRCALME,"Grenoble, Vallier - Docteur Calmette",45.18013,5.71077,,1,,1
DRCALMET,GENDRCALMET,"Grenoble, Vallier - Docteur Calmette",45.17999,5.71099,,1,,1
DRIANT,GENDRIANT,"Grenoble, Driant",45.18228,5.7341,,1,,1
DRMARTIN,GENDRMARTIN,"Grenoble, Docteur Martin",45.18731,5.72728,,1,,1
DRMAZET,GENDRMAZET,"Grenoble, Docteur Mazet",45.19128,5.72201,,1,,1
DUBEDOUT,GENDUBEDOUT,"Grenoble, Hubert Dubedout - Maison du Tourisme",45.1902,5.72822,,1,,1
DURANT,GENDURANT,"Grenoble, Durant-Savoyat",45.1988,5.71015,,1,,1
ECHALIER,GENECHALIER,"Veurey-Voroize, Les Echalières",45.26824,5.61944,,1,,1
ECHIGARE,GENECHIGARE,"Échirolles, Echirolles Gare",45.15302,5.71848,,1,,1
ECOLE,GENECOLE,"Quaix-en-Chartreuse, Quaix-en-Chartreuse Village",45.25346,5.71992,,1,,1
ECOLELP,GENECOLELP,"Champ-sur-Drac, Le Pavillon",45.07999,5.73469,,1,,1
ECOLEREY,GENECOLEREY,"Vif, Ecole Reymure",45.06908,5.69334,,1,,1
ECOLHOSP,GENECOLHOSP,"Échirolles, Ecoles Hospitalières",45.14638,5.72973,,1,,1
ECRINS,GENECRINS,"Fontaine, Les Écrins",45.19753,5.68631,,1,,1
ECUREUIL,GENECUREUIL,"Échirolles, Ecureuil",45.14261,5.70384,,1,,1
EDELWEIS,GENEDELWEIS,"Gières, Edelweiss",45.18149,5.78755,,1,,1
EDISON,GENEDISON,"Grenoble, Edison",45.18183,5.74091,,1,,1
EDMOESMO,GENEDMOESMO,"Grenoble, Edmond Esmonin",45.15937,5.72662,,1,,1
EDROSTAN,GENEDROSTAN,"Saint-Martin-d'Hères, Edmond Rostand",45.17446,5.75432,,1,,1
EDVAILLA,GENEDVAILLA,"Saint-Martin-d'Hères, Edouard Vaillant",45.17902,5.75528,,1,,1
EGLISESE,GENEGLISESE,"Saint-Égrève, Eglise",45.23999,5.68407,,1,,1
EGRECOLE,GENEGRECOLE,"Proveysieux, Proveysieux Village",45.26335,5.69973,,1,,1
EGREGUA,GENEGREGUA,"Proveysieux, Pont du Gua",45.27608,5.70727,,1,,1
EGREMOLL,GENEGREMOLL,"Proveysieux, Le Mollard",45.25822,5.69591,,1,,1
EJCURIE,GENEJCURIE,"Vizille, Ecoles Joliot-Curie",45.08403,5.77517,,1,,1
ELSATRIO,GENELSATRIO,"Saint-Martin-d'Hères, Elsa Triolet",45.17958,5.77015,,1,,1
ENGENIER,GENENGENIER,"Sassenage, Les Engenières",45.2196,5.66022,,1,,1
ESCLANGO,GENESCLANGO,"Grenoble, Esclangon",45.19158,5.7065,,1,,1
ESPLANAD,GENESPLANAD,"Grenoble, Annie Fratellini-Esplanade",45.19566,5.71679,,1,,1
ESSARTS,GENESSARTS,"Échirolles, Essarts - La Butte",45.15588,5.71909,,1,,1
ETIEGRAP,GENETIEGRAP,"Saint-Martin-d'Hères, Etienne Grappe",45.17213,5.75769,,1,,1
EUGENESU,GENEUGENESU,"Grenoble, Eugène Sue",45.17284,5.72476,,1,,1
EYBMAIRI,GENEYBMAIRI,"Eybens, Eybens Mairie",45.14733,5.74979,,1,,1
EYGALA,GENEYGALA,"Corenc, Eygala",45.21385,5.76461,,1,,1
FACPHARM,GENFACPHARM,"Meylan, Faculté de Pharmacie",45.2115,5.77392,,1,,1
FAUCONNI,GENFAUCONNI,"Seyssinet-Pariset, Fauconnière",45.17651,5.69427,,1,,1
FAUX,GENFAUX,"Saint-Martin-d'Uriage, Hameau Le Faux",45.17162,5.84658,,1,,1
FELIXVIA,GENFELIXVIA,"Grenoble, Félix Viallet",45.19073,5.71847,,1,,1
FIANCEY,GENFIANCEY,"Saint-Égrève, Chemin Fiancey",45.22864,5.69171,,1,,1
FLANVALM,GENFLANVALM,"Grenoble, Flandrin - Valmy",45.18721,5.74474,,1,,1
FLAUCLOS,GENFLAUCLOS,"Grenoble, Flaubert - Clos d'Or",45.17049,5.72791,,1,,1
FOCHAIRE,GENFOCHAIRE,"Mont-Saint-Martin, Fochaire",45.27158,5.67442,,1,,1
FOCHFERI,GENFOCHFERI,"Grenoble, Foch - Ferrié",45.1808,5.72256,,1,,1
FONDRATE,GENFONDRATE,"Claix, Fond Ratel",45.12215,5.68935,,1,,1
FONTAGNE,GENFONTAGNE,"Varces-Allières-et-Risset, Fontagneux",45.08728,5.70786,,1,,1
FONTAHDV,GENFONTAHDV,"Fontaine, Fontaine Hôtel de Ville - La Source",45.19134,5.68727,,1,,1
FONTAINA,GENFONTAINA,"Fontaine, Les Fontainades - Le Vog",45.18909,5.69844,,1,,1
FONTANIL,GENFONTANIL,"Fontanil-Cornillon, Palluel",45.25507,5.66148,,1,,1
FONTANIM,GENFONTANIM,"Fontanil-Cornillon, Le Fontanil Mairie",45.25618,5.66633,,1,,1
FONTCIM,GENFONTCIM,"Fontanil-Cornillon, Le Fontanil Cimetière",45.25823,5.66385,,1,,1
FONVIEIL,GENFONVIEIL,"Quaix-en-Chartreuse, Fontvieille",45.2592,5.7449,,1,,1
FRBLUMET,GENFRBLUMET,"Sassenage, François Blumet",45.20966,5.677,,1,,1
FRENAIE,GENFRENAIE,"Venon, La Frênaie",45.17338,5.79514,,1,,1
FRQUESNA,GENFRQUESNA,"Échirolles, François Quesnay",45.1479,5.73517,,1,,1
FURONNIE,GENFURONNIE,"Claix, Furonnières",45.12596,5.67131,,1,,1
GABFAURE,GENGABFAURE,"Saint-Martin-d'Hères, Gabriel Fauré - MUSE",45.19228,5.7643,,1,,1
GAGNIERE,GENGAGNIERE,"Saint-Martin-le-Vinoux, Louis Gagnière",45.21485,5.68576,,1,,1
GALOCHER,GENGALOCHER,"Saint-Martin-d'Hères, Galochère",45.17878,5.77315,,1,,1
GARCINS,GENGARCINS,"Vif, Les Garcins",45.06389,5.66986,,1,,1
GARDE,GENGARDE,"Saint-Paul-de-Varces, La Garde",45.07049,5.65062,,1,,1
GAREJARR,GENGAREJARR,"Jarrie, Jarrie Gare",45.08563,5.74255,,1,,1
GARENNE,GENGARENNE,"Corenc, La Garenne",45.22729,5.76583,,1,,1
GARES,GENGARES,"Grenoble, Gares",45.19078,5.71554,,1,,1
GARESNCF,GENGARESNCF,"Grenoble, Gares",45.19095,5.71557,,1,,1
GARLETTE,GENGARLETTE,"Seyssins, Garlettes",45.14748,5.67773,,1,,1
GAROUTIE,GENGAROUTIE,"Grenoble, Gare Routière",45.19298,5.71406,,1,,1
GAVANIER,GENGAVANIER,"Saint-Égrève, Gavanière",45.24122,5.68148,,1,,1
GAY,GENGAY,"Saint-Martin-d'Hères, Gay",45.18479,5.75086,,1,,1
GAYLUSSA,GENGAYLUSSA,"Échirolles, Gay Lussac",45.13645,5.71214,,1,,1
GDCHATEL,GENGDCHATEL,"Saint-Martin-d'Hères, Grand Châtelet",45.18194,5.74841,,1,,1
GDTRONCH,GENGDTRONCH,"La Tronche, Grande Tronche",45.20704,5.74578,,1,,1
GDVERGER,GENGDVERGER,"Champ-sur-Drac, Grand Verger",45.07385,5.72957,,1,,1
GERARPHI,GENGERARPHI,"Fontaine, Gérard Philipe",45.19647,5.67704,,1,,1
GIERGARE,GENGIERGARE,"Gières, Gières Gare - Universités",45.18528,5.78458,,1,,1
GIGNOUX,GENGIGNOUX,"Grenoble, Maurice Gignoux",45.19421,5.72525,,1,,1
GLAIEULS,GENGLAIEULS,"Saint-Martin-d'Hères, Glaïeuls",45.16964,5.76358,,1,,1
GLAIRAUX,GENGLAIRAUX,"Saint-Égrève, Les Glairaux",45.21901,5.67949,,1,,1
GLIERES,GENGLIERES,"Échirolles, Les Glières",45.14962,5.71167,,1,,1
GONNADIE,GENGONNADIE,"Champ-sur-Drac, Marcel Paul",45.07745,5.73156,,1,,1
GRANDPRE,GENGRANDPRE,"Seyssinet-Pariset, Grand Pré",45.17178,5.69424,,1,,1
GRANG,GENGRANG,"Saint-Égrève, Grange Haute",45.24558,5.69563,,1,,1
GRANGE,GENGRANGE,"Vif, La Grange",45.03933,5.66126,,1,,1
GRANGES,GENGRANGES,"Échirolles, Les Granges",45.15696,5.72781,,1,,1
GRANIER,GENGRANIER,"Meylan, Granier",45.21027,5.78453,,1,,1
GRAPH,GENGRAPH,"Échirolles, Centre du graphisme",45.14185,5.71816,,1,,1
GRDPLACE,GENGRDPLACE,"Grenoble, Grand'place",45.15893,5.73179,,1,,1
GRDSABLO,GENGRDSABLO,"La Tronche, Grand Sablon",45.19903,5.75,,1,,1
GREHOTEL,GENGREHOTEL,"Grenoble, Grenoble Hôtel de Ville",45.18746,5.73779,,1,,1
GRESIVAU,GENGRESIVAU,"Corenc, Grésivaudan",45.20997,5.76177,,1,,1
GRIMPI,GENGRIMPI,"Vizille, Le Grimpillon",45.08233,5.77515,,1,,1
GROSCHEN,GENGROSCHEN,"Varces-Allières-et-Risset, Le Gros Chêne",45.07832,5.7021,,1,,1
GRUGLIAS,GENGRUGLIAS,"Échirolles, Grugliasco",45.15127,5.70946,,1,,1
GUEBOUTE,GENGUEBOUTE,"Meylan, Gué du Boutet",45.22869,5.78464,,1,,1
GUERIMAN,GENGUERIMAN,"Saint-Martin-le-Vinoux, 16 Août 1944",45.20414,5.71545,,1,,1
GUICHARD,GENGUICHARD,"Vaulnaveys-le-Haut, Les Guichards",45.12655,5.8167,,1,,1
GUILBERT,GENGUILBERT,"Saint-Georges-de-Commiers, Les Guiberts",45.03859,5.70576,,1,,1
GUSTRIVE,GENGUSTRIVE,"Grenoble, Gustave Rivet",45.1817,5.72783,,1,,1
GUYMOCQU,GENGUYMOCQU,"Échirolles, Guy Mocquet",45.14548,5.72585,,1,,1
HAUT,GENHAUT,"Saint-Martin-d'Uriage, Hautes Vues",45.163,5.83953,,1,,1
HEBOURG,GENHEBOURG,"Herbeys, Herbeys Le Bourg",45.13887,5.79311,,1,,1
HENRIREY,GENHENRIREY,"Seyssins, Henri Rey",45.1474,5.67773,,1,,1
HENRIWAL,GENHENRIWAL,"Saint-Martin-d'Hères, Henri Wallon",45.17563,5.76392,,1,,1
HOPITSUD,GENHOPITSUD,"Échirolles, Hôpital Sud",45.1469,5.73274,,1,,1
HOPMICHA,GENHOPMICHA,"La Tronche, Hôpital Michallon - Belledonne",45.19714,5.74758,,1,,1
HOPOLICE,GENHOPOLICE,"Grenoble, Hôtel de Police",45.1941,5.73571,,1,,1
HORLOGE,GENHORLOGE,"Saint-Martin-le-Vinoux, Horloge",45.21363,5.69885,,1,,1
HOTELBEL,GENHOTELBEL,"Saint-Martin-le-Vinoux, Hôtel Bellevue",45.21153,5.71775,,1,,1
HOUILLEB,GENHOUILLEB,"Saint-Martin-d'Hères, Houille Blanche",45.17794,5.7517,,1,,1
HTMEYLAN,GENHTMEYLAN,"Meylan, Haut-Meylan",45.21798,5.77913,,1,,1
HVENCE,GENHVENCE,"Corenc, Hameau de Vence",45.24179,5.75433,,1,,1
ILESCORD,GENILESCORD,"Veurey-Voroize, Iles Cordées",45.25971,5.62608,,1,,1
ILESMARS,GENILESMARS,"Le Pont-de-Claix, Iles de Mars",45.13197,5.70026,,1,,1
ILEVERTE,GENILEVERTE,"Grenoble, Ile Verte",45.19713,5.73662,,1,,1
ILIADE,GENILIADE,"Eybens, L'Iliade",45.14713,5.74546,,1,,1
INRIA,GENINRIA,"Montbonnot-Saint-Martin, INRIA",45.21747,5.80738,,1,,1
IRENEJOL,GENIRENEJOL,"Le Pont-de-Claix, Irène Joliot-Curie",45.12742,5.69856,,1,,1
ISAR,GENISAR,"Saint-Martin-d'Uriage, Izards Patte d'Oie",45.16887,5.86486,,1,,1
ISLE,GENISLE,"Saint-Georges-de-Commiers, Les Isles",45.04881,5.70664,,1,,1
JACOBINS,GENJACOBINS,"Vif, Jacobins",45.06461,5.69128,,1,,1
JAILLIER,GENJAILLIER,"Meylan, Les Jaillières",45.22103,5.79007,,1,,1
JAVAUX,GENJAVAUX,"Eybens, Les Javaux",45.15034,5.7499,,1,,1
JBRUANT,GENJBRUANT,"Vaulnaveys-le-Haut, Ecole Jules Bruant",45.12172,5.8144,,1,,1
JEANNARC,GENJEANNARC,"Grenoble, Jeanne d'Arc",45.18177,5.74518,,1,,1
JEANPREV,GENJEANPREV,"Fontaine, Jean Prévost",45.18955,5.68276,,1,,1
JFLANDRI,GENJFLANDRI,"Meylan, Jules Flandrin",45.20854,5.75845,,1,,1
JRACINE,GENJRACINE,"Grenoble, Jean Racine",45.16682,5.74175,,1,,1
JULESGUE,GENJULESGUE,"Fontaine, Jules Guesde",45.19791,5.68878,,1,,1
JULESREY,GENJULESREY,"La Tronche, Jules Rey",45.20658,5.74278,,1,,1
KARBEN,GENKARBEN,"Saint-Égrève, Karben",45.24235,5.67093,,1,,1
KARLMARX,GENKARLMARX,"Fontaine, Karl Marx",45.18652,5.68729,,1,,1
LABAUME,GENLABAUME,"Seyssins, La Baume",45.16003,5.68982,,1,,1
LACHAL,GENLACHAL,"Saint-Martin-le-Vinoux, Lachal",45.22242,5.72475,,1,,1
LACHARRI,GENLACHARRI,"Le Gua, La Charrière",45.01277,5.61587,,1,,1
LACHENAI,GENLACHENAI,"Venon, La Chênaie",45.17051,5.80746,,1,,1
LACOMBE,GENLACOMBE,"Gières, La Combe",45.17412,5.79001,,1,,1
LACUCHE,GENLACUCHE,"Veurey-Voroize, La Cuche",45.25606,5.62814,,1,,1
LAFAURIE,GENLAFAURIE,"Venon, La Faurie",45.17542,5.79467,,1,,1
LAFOY,GENLAFOY,"Meylan, La Foy",45.2171,5.77634,,1,,1
LAGAY,GENLAGAY,"Bresson, Lagay",45.1408,5.74997,,1,,1
LAGNEAU,GENLAGNEAU,"Seyssins, L'Agneau",45.1613,5.68296,,1,,1
LAGOMMA,GENLAGOMMA,"Saint-Martin-le-Vinoux, La Gomma",45.21513,5.71914,,1,,1
LALUIRE,GENLALUIRE,"Le Pont-de-Claix, Gendarmerie",45.14003,5.69852,,1,,1
LALUNE,GENLALUNE,"Seyssins, Rue de la Lune",45.15551,5.67222,,1,,1
LAMELLE,GENLAMELLE,"Champ-sur-Drac, La Melle",45.07063,5.72713,,1,,1
LAMONTA,GENLAMONTA,"Saint-Égrève, La Monta",45.23799,5.68861,,1,,1
LAMPHI,GENLAMPHI,"Le Pont-de-Claix, L'Amphi",45.13035,5.69975,,1,,1
LAMURAIL,GENLAMURAIL,"Seyssinet-Pariset, Murailles",45.17825,5.69178,,1,,1
LANGEVIN,GENLANGEVIN,"Échirolles, Paul Langevin",45.14346,5.72313,,1,,1
LAPIERRE,GENLAPIERRE,"Le Gua, La Pierre",44.98916,5.62198,,1,,1
LAPLAINE,GENLAPLAINE,"Seyssinet-Pariset, La Plaine",45.1726,5.69689,,1,,1
LAPOYA,GENLAPOYA,"Fontaine, La Poya",45.19709,5.67222,,1,,1
LAPRAIRI,GENLAPRAIRI,"Sarcenas, La Prairie",45.29462,5.76561,,1,,1
LARIVO,GENLARIVO,"Mont-Saint-Martin, La Rivoire",45.26869,5.6686,,1,,1
LARIVOIR,GENLARIVOIR,"Saint-Martin-le-Vinoux, La Rivoire",45.22001,5.71507,,1,,1
LASERRAL,GENLASERRAL,"Venon, La Serralière",45.17283,5.79806,,1,,1
LASURE,GENLASURE,"Fontaine, La Sure",45.20279,5.68586,,1,,1
LATOUR,GENLATOUR,"Saint-Georges-de-Commiers, La Tour",45.03822,5.70418,,1,,1
LATUILE,GENLATUILE,"Vaulnaveys-le-Haut, La Tuilerie",45.13617,5.82423,,1,,1
LAVALONE,GENLAVALONE,"Vif, La Valonne",45.05031,5.67129,,1,,1
LAVILLE,GENLAVILLE,"Venon, La Ville",45.17409,5.80262,,1,,1
LEBOURG,GENLEBOURG,"Eybens, Le Bourg",45.14781,5.75116,,1,,1
LEBRET,GENLEBRET,"Meylan, Le Brêt",45.2059,5.77174,,1,,1
LECELLIE,GENLECELLIE,"Seyssins, Clinique du Dauphiné",45.16149,5.67354,,1,,1
LECHAPON,GENLECHAPON,"Venon, Le Chapon",45.17096,5.82185,,1,,1
LECHENIL,GENLECHENIL,"Venon, Le Chenil",45.1631,5.8123,,1,,1
LECHERES,GENLECHERES,"Meylan, Les Léchères",45.20454,5.75928,,1,,1
LECOMB,GENLECOMB,"Seyssinet-Pariset, Les Combes",45.16807,5.67875,,1,,1
LECRET,GENLECRET,"Eybens, Le Crêt",45.14391,5.74859,,1,,1
LEGATINE,GENLEGATINE,"Saint-Martin-le-Vinoux, Gatinet",45.22453,5.71878,,1,,1
LEGORGET,GENLEGORGET,"La Tronche, Le Gorget",45.21529,5.74853,,1,,1
LEGOUILL,GENLEGOUILL,"Le Sappey-en-Chartreuse, Le Gouillat",45.25474,5.77111,,1,,1
LEGUA,GENLEGUA,"Sassenage, Le Gua",45.20969,5.66443,,1,,1
LEGUAMAI,GENLEGUAMAI,"Le Gua, Le Gua Mairie",45.02211,5.64457,,1,,1
LEJAPIN,GENLEJAPIN,"Gières, Le Japin",45.18746,5.80706,,1,,1
LEMAIL,GENLEMAIL,"Grenoble, Le Mail",45.16123,5.72891,,1,,1
LEMARAIS,GENLEMARAIS,"Saint-Martin-d'Hères, Le Marais",45.16412,5.75044,,1,,1
LEMASGAC,GENLEMASGAC,"Saint-Martin-le-Vinoux, Mas Caché",45.2177,5.72187,,1,,1
LENCLOS,GENLENCLOS,"Brié-et-Angonnes, L'Enclos",45.1333,5.77484,,1,,1
LEOLA,GENLEOLA,"Champ-sur-Drac, Léo Lagrange",45.08448,5.73474,,1,,1
LEONJOUH,GENLEONJOUH,"Grenoble, Léon Jouhaux",45.169,5.74444,,1,,1
LEPARL,GENLEPARL,"Seyssins, Le Parlement",45.15864,5.67447,,1,,1
LEPERROU,GENLEPERROU,"Venon, Le Perroud",45.17245,5.81036,,1,,1
LEPLATR,GENLEPLATR,"Jarrie, Le Plâtre",45.11776,5.7479,,1,,1
LEPLATRE,GENLEPLATRE,"Vaulnaveys-le-Bas, Chemin des Cottes",45.09398,5.79326,,1,,1
LEPRIOU,GENLEPRIOU,"Seyssins, Le Priou",45.15698,5.6788,,1,,1
LEREFUGE,GENLEREFUGE,"Vif, Le Refuge",45.07462,5.69959,,1,,1
LEREYNET,GENLEREYNET,"Venon, Le Reynet",45.16989,5.81322,,1,,1
LERIF,GENLERIF,"Vif, Le Rif",45.0323,5.65546,,1,,1
LERONZA,GENLERONZA,"La Tronche, Le Rozan",45.20926,5.7423,,1,,1
LESALLAS,GENLESALLAS,"Vizille, Les Allas",45.07547,5.7786,,1,,1
LESBAINS,GENLESBAINS,"Grenoble, Suzanne Noël - Les Bains",45.17821,5.74264,,1,,1
LESCOMBE,GENLESCOMBE,"Saint-Martin-le-Vinoux, Les Combes",45.20964,5.718,,1,,1
LESCOTES,GENLESCOTES,"Seyssins, Les Côtes",45.15689,5.6708,,1,,1
LESESSAR,GENLESESSAR,"Grenoble, Les Essarts",45.1593,5.71376,,1,,1
LESFAURE,GENLESFAURE,"Le Gua, Les Faures",45.01439,5.61354,,1,,1
LESFAUVE,GENLESFAUVE,"Saint-Martin-le-Vinoux, Les Fauvettes",45.20589,5.71784,,1,,1
LESFORGE,GENLESFORGE,"Vizille, Les Forges",45.07716,5.76858,,1,,1
LESILES,GENLESILES,"Seyssinet-Pariset, Les Iles",45.1841,5.69716,,1,,1
LESPIES,GENLESPIES,"Sassenage, Les Pies",45.19957,5.66989,,1,,1
LETOILE,GENLETOILE,"Le Pont-de-Claix, L'Etoile",45.13788,5.7033,,1,,1
LEVERNAY,GENLEVERNAY,"Miribel-Lanchâtre, Le Vernay",44.97015,5.60875,,1,,1
LEVETIER,GENLEVETIER,"Saint-Martin-le-Vinoux, Levetière",45.22629,5.72548,,1,,1
LHERMITA,GENLHERMITA,"Saint-Martin-le-Vinoux, L'Hermitage",45.21501,5.70418,,1,,1
LMICHEL,GENLMICHEL,"Grenoble, Louise Michel",45.16976,5.71287,,1,,1
LOTI,GENLOTI,"Saint-Martin-d'Uriage, Lotissement La Noyarey",45.16166,5.84281,,1,,1
LOUISJOU,GENLOUISJOU,"Grenoble, Louis Jouvet",45.16999,5.73712,,1,,1
LTE,GENLTE,"Vizille, Vizille Lycée",45.06872,5.76836,,1,,1
LYCBACHA,GENLYCBACHA,"Meylan, Lycée du Grésivaudan - Bachais",45.21416,5.7791,,1,,1
LYCGRESI,GENLYCGRESI,"Meylan, Lycée du Grésivaudan",45.2134,5.78085,,1,,1
MADELEIN,GENMADELEIN,"Grenoble, Madeleine",45.18515,5.74324,,1,,1
MAICULTU,GENMAICULTU,"Grenoble, MC2: Maison de la Culture",45.17347,5.73206,,1,,1
MAINNATI,GENMAINNATI,"Grenoble, Marché d'Intérêt National",45.17354,5.71805,,1,,1
MAIRIECO,GENMAIRIECO,"Corenc, Mairie-Condamine",45.21118,5.75092,,1,,1
MAIRIESM,GENMAIRIESM,"Saint-Martin-le-Vinoux, Saint-Martin-le-Vinoux Hôtel de Ville",45.20826,5.70685,,1,,1
MAISANCI,GENMAISANCI,"Grenoble, Maison des Anciens",45.15975,5.72325,,1,,1
MAISNEUV,GENMAISNEUV,"Eybens, Maisons Neuves",45.16491,5.74252,,1,,1
MAISON,GENMAISON,"Vaulnaveys-le-Bas, Maison Blanche",45.11181,5.80512,,1,,1
MAISONCO,GENMAISONCO,"Saint-Martin-d'Hères, Maison Communale",45.18412,5.75414,,1,,1
MAISONNA,GENMAISONNA,"Fontaine, Louis Maisonnat",45.18912,5.69409,,1,,1
MALACHER,GENMALACHER,"Meylan, Malacher",45.21122,5.78722,,1,,1
MALADIER,GENMALADIER,"Sassenage, Maladière",45.20773,5.68048,,1,,1
MALHERBE,GENMALHERBE,"Grenoble, Malherbe",45.16928,5.73229,,1,,1
MALHIVER,GENMALHIVER,"Claix, Malhivert",45.13254,5.66688,,1,,1
MALISSOL,GENMALISSOL,"Varces-Allières-et-Risset, Malissolles",45.08396,5.7047,,1,,1
MALLIFAU,GENMALLIFAU,"Grenoble, Mallifaud",45.18033,5.73507,,1,,1
MARAT,GENMARAT,"Fontaine, Marat",45.19915,5.68284,,1,,1
MARCEAU,GENMARCEAU,"Grenoble, Marceau - Jardin des Vallons",45.18245,5.72217,,1,,1
MARCELLI,GENMARCELLI,"Le Pont-de-Claix, Marcelline",45.12553,5.69795,,1,,1
MARCHAND,GENMARCHAND,"Vaulnaveys-le-Haut, Marchandises",45.11483,5.80766,,1,,1
MARCSANG,GENMARCSANG,"Seyssins, Marc Sangnier",45.16486,5.68915,,1,,1
MARESIST,GENMARESIST,"Grenoble, Martyrs - Résistance",45.2081,5.69661,,1,,1
MARIANNE,GENMARIANNE,"Le Pont-de-Claix, Marianne",45.13495,5.69291,,1,,1
MARIECUR,GENMARIECUR,"Échirolles, Marie Curie",45.14523,5.71704,,1,,1
MARITELL,GENMARITELL,"Bresson, La Maritelle",45.14162,5.74135,,1,,1
MARRONNI,GENMARRONNI,"Veurey-Voroize, Les Marronniers",45.27636,5.61105,,1,,1
MASDESIL,GENMASDESIL,"Seyssins, Mas des Iles",45.16727,5.69424,,1,,1
MASGARNI,GENMASGARNI,"Vif, Mas Garni",45.06078,5.68819,,1,,1
MASSEGU,GENMASSEGU,"Vif, Le Masségu",45.05194,5.67464,,1,,1
MASSENET,GENMASSENET,"Grenoble, Massenet",45.16771,5.72108,,1,,1
MAUPA,GENMAUPA,"Saint-Martin-d'Uriage, Le Maupas",45.15926,5.81904,,1,,1
MAUPERTJ,GENMAUPERTJ,"Jarrie, Maupertuis",45.10558,5.74645,,1,,1
MAUPERTU,GENMAUPERTU,"Meylan, Maupertuis",45.21285,5.79719,,1,,1
MCCARGO,GENMCCARGO,"Grenoble, MC2: Maison de la Culture",45.17363,5.73178,,1,,1
MEINGET,GENMEINGET,"Saint-Paul-de-Varces, Le Meinget",45.07973,5.66297,,1,,1
METRA,GENMETRA,"Brié-et-Angonnes, Les Métraux",45.12164,5.78504,,1,,1
MEYLMAIR,GENMEYLMAIR,"Meylan, Meylan Mairie",45.20928,5.7785,,1,,1
MICHALLO,GENMICHALLO,"La Tronche, Hôpital Michallon - Grésivaudan",45.20028,5.74533,,1,,1
MIRIBEL,GENMIRIBEL,"Miribel-Lanchâtre, Miribel",44.97466,5.621,,1,,1
MOLLARD,GENMOLLARD,"Corenc, Rochasson",45.22364,5.7678,,1,,1
MOLLARDP,GENMOLLARDP,"Sassenage, Mollard Pichon",45.21361,5.65249,,1,,1
MOLLARSA,GENMOLLARSA,"Le Sappey-en-Chartreuse, Les Jonquilles",45.26467,5.7742,,1,,1
MONMOUSS,GENMONMOUSS,"Échirolles, Monmousseau",45.15354,5.71188,,1,,1
MONTCHAV,GENMONTCHAV,"Montchaboud, Montchaboud Le Village",45.09498,5.76482,,1,,1
MONTFLEU,GENMONTFLEU,"Corenc, Montfleury",45.21204,5.75709,,1,,1
MONTLIVE,GENMONTLIVE,"Meylan, Montlivet",45.22998,5.78981,,1,,1
MONTQUAI,GENMONTQUAI,"Quaix-en-Chartreuse, Mont-Quaix",45.25575,5.74284,,1,,1
MONUMENT,GENMONUMENT,"Corenc, Monument",45.217,5.7536,,1,,1
MORE,GENMORE,"Proveysieux, Moretière",45.25405,5.69438,,1,,1
MORTES,GENMORTES,"Domène, Les Mortes",45.19635,5.82887,,1,,1
MOUCHERO,GENMOUCHERO,"Claix, Moucherotte",45.12579,5.68096,,1,,1
MOULIN,GENMOULIN,"Notre-Dame-de-Commiers, Le Moulin",45.01516,5.7045,,1,,1
MOUNIER,GENMOUNIER,"Grenoble, Mounier",45.179,5.73179,,1,,1
MOUTONNE,GENMOUTONNE,"Saint-Égrève, Moutonnées",45.22838,5.68422,,1,,1
MURET,GENMURET,"Saint-Égrève, Muret",45.22618,5.68616,,1,,1
MURIERS,GENMURIERS,"Meylan, Les Mûriers",45.21549,5.77954,,1,,1
MUSEEDAU,GENMUSEEDAU,"Grenoble, Musée Dauphinois",45.19497,5.72614,,1,,1
MUSGEOCH,GENMUSGEOCH,"Échirolles, Musée Géo Charles",45.14878,5.70172,,1,,1
MUSHEBER,GENMUSHEBER,"La Tronche, Musée Hébert",45.20564,5.74888,,1,,1
MUTUALIT,GENMUTUALIT,"Grenoble, Mutualité",45.19046,5.73663,,1,,1
NAMIERE,GENNAMIERE,"Mont-Saint-Martin, Chemin de Namière",45.27232,5.67853,,1,,1
NARBONNE,GENNARBONNE,"Saint-Martin-le-Vinoux, Narbonne",45.21398,5.71026,,1,,1
NAVIS,GENNAVIS,"Échirolles, Navis",45.15627,5.70842,,1,,1
NDCV,GENNDCV,"Notre-Dame-de-Commiers, Notre-Dame-de-Commiers Le Village",45.00967,5.70015,,1,,1
NERON,GENNERON,"Saint-Martin-le-Vinoux, Néron",45.21782,5.69334,,1,,1
NEYRBELL,GENNEYRBELL,"Saint-Martin-d'Hères, Neyrpic - Belledonne",45.18669,5.75716,,1,,1
NODAMLAC,GENNODAMLAC,"Varces-Allières-et-Risset, Notre-Dame de Lachal",45.08736,5.69011,,1,,1
NORBSEGA,GENNORBSEGA,"Meylan, Norbert Ségard",45.20915,5.79489,,1,,1
NOTREDAM,GENNOTREDAM,"Grenoble, Notre-Dame - Musée",45.19358,5.73214,,1,,1
NOYARBAS,GENNOYARBAS,"Noyarey, Bascule",45.24292,5.63217,,1,,1
NOYARSTJ,GENNOYARSTJ,"Noyarey, Saint-Jean",45.23891,5.63425,,1,,1
ODYSSEE,GENODYSSEE,"Eybens, Odyssée",45.15273,5.74876,,1,,1
OISEAUX,GENOISEAUX,"Corenc, Les Oiseaux",45.21506,5.76867,,1,,1
ORATOIRE,GENORATOIRE,"Domène, L'Oratoire",45.19819,5.83412,,1,,1
ORIEL,GENORIEL,"Varces-Allières-et-Risset, L'Oriel",45.08937,5.68355,,1,,1
OVALIE,GENOVALIE,"Sassenage, L'Ovalie",45.20967,5.66695,,1,,1
PABLONER,GENPABLONER,"Saint-Martin-d'Hères, Pablo Neruda",45.17395,5.76074,,1,,1
PAJON,GENPAJON,"Corenc, Charles Pajon",45.21369,5.75287,,1,,1
PALAQUIT,GENPALAQUIT,"Sarcenas, Col de Palaquit",45.27308,5.7657,,1,,1
PALJUSTI,GENPALJUSTI,"Grenoble, Palais de Justice - Gare",45.19164,5.71086,,1,,1
PAMPRES,GENPAMPRES,"Claix, Les Pampres",45.11536,5.66589,,1,,1
PARCS,GENPARCS,"Sassenage, Les Parcs",45.21658,5.652,,1,,1
PASCAL,GENPASCAL,"La Tronche, Pascal",45.1995,5.75527,,1,,1
PAULCOCA,GENPAULCOCA,"Grenoble, Paul Cocat",45.17226,5.74478,,1,,1
PAULELUA,GENPAULELUA,"Saint-Martin-d'Hères, Paul Eluard",45.16512,5.74887,,1,,1
PAUT,GENPAUT,"Notre-Dame-de-Commiers, Les Pauttats",45.01148,5.70161,,1,,1
PAVILLON,GENPAVILLON,"Varces-Allières-et-Risset, Pavillon",45.1084,5.67425,,1,,1
PCLAUDEL,GENPCLAUDEL,"Grenoble, Paul Claudel",45.17336,5.73851,,1,,1
PEAGEDEV,GENPEAGEDEV,"Vizille, Le Péage",45.0577,5.77102,,1,,1
PEIFFEND,GENPEIFFEND,"Saint-Martin-d'Uriage, Les Peiffendes",45.15716,5.82241,,1,,1
PELISIER,GENPELISIER,"Varces-Allières-et-Risset, Pélissière",45.07057,5.67506,,1,,1
PELLOUTI,GENPELLOUTI,"Échirolles, Fernand Pelloutier",45.15084,5.71482,,1,,1
PENET,GENPENET,"Saint-Martin-d'Uriage, Le Penet",45.15872,5.84837,,1,,1
PERCEVAL,GENPERCEVAL,"Seyssinet-Pariset, Percevalière",45.17016,5.68682,,1,,1
PERE,GENPERE,"Saint-Martin-d'Uriage, La Pérérée",45.17626,5.86102,,1,,1
PERIBROS,GENPERIBROS,"Saint-Martin-d'Hères, Péri - Brossolette",45.18771,5.75142,,1,,1
PERIERES,GENPERIERES,"Veurey-Voroize, Perrières",45.26209,5.6247,,1,,1
PEROUSES,GENPEROUSES,"Claix, Les Pérouses",45.12456,5.67937,,1,,1
PERRIERE,GENPERRIERE,"Gières, La Perrière",45.18935,5.81079,,1,,1
PETIBRIO,GENPETIBRIO,"Vif, Le Petit Brion",45.06225,5.69018,,1,,1
PEUPLE,GENPEUPLE,"Saint-Georges-de-Commiers, Les Peupliers",45.04571,5.70237,,1,,1
PFMITTER,GENPFMITTER,"Seyssins, Parc François Mitterrand",45.16287,5.6853,,1,,1
PHEROULT,GENPHEROULT,"Échirolles, Paul Héroult",45.14728,5.71347,,1,,1
PIEDGIER,GENPIEDGIER,"Gières, Pied de Gières",45.18388,5.79852,,1,,1
PIERRELO,GENPIERRELO,"Saint-Martin-d'Hères, Pierre Loti",45.16664,5.74646,,1,,1
PIERSEMA,GENPIERSEMA,"Saint-Martin-d'Hères, Pierre Sémard",45.18128,5.75712,,1,,1
PINEA,GENPINEA,"Saint-Égrève, La Pinéa - St Robert",45.23565,5.67549,,1,,1
PINET,GENPINET,"Saint-Martin-d'Uriage, Le Pinet d'Uriage",45.16524,5.84899,,1,,1
PISBUCLO,GENPISBUCLO,"Meylan, Piscine des Buclos",45.20888,5.77538,,1,,1
PLACA,GENPLACA,"Champagnier, Place du Laca",45.11379,5.72863,,1,,1
PLACECYM,GENPLACECYM,"Grenoble, Place Cymaise",45.195,5.72917,,1,,1
PLACEQUA,GENPLACEQUA,"Quaix-en-Chartreuse, Quaix-en-Chartreuse Place",45.25319,5.71732,,1,,1
PLACESAP,GENPLACESAP,"Le Sappey-en-Chartreuse, Le Sappey-en-Chartreuse Place",45.25948,5.77706,,1,,1
PLACMARC,GENPLACMARC,"Fontaine, Place du Marché Cachin",45.19588,5.69065,,1,,1
PLAINE,GENPLAINE,"Vif, La Plaine",45.06686,5.69213,,1,,1
PLAINEDS,GENPLAINEDS,"Gières, Plaine des Sports",45.18805,5.78421,,1,,1
PLAINEFL,GENPLAINEFL,"Meylan, Plaine Fleurie",45.20276,5.76139,,1,,1
PLALOUIS,GENPLALOUIS,"Meylan, Place de la Louisiane",45.20876,5.76321,,1,,1
PLANF,GENPLANF,"Proveysieux, Planfay Bas",45.27869,5.71357,,1,,1
PLANFAY,GENPLANFAY,"Proveysieux, Planfay Haut",45.27874,5.71787,,1,,1
PLATANES,GENPLATANES,"Varces-Allières-et-Risset, Les Platanes",45.08933,5.6777,,1,,1
PLGEANTS,GENPLGEANTS,"Grenoble, Les Géants",45.16115,5.73994,,1,,1
PLIBERAT,GENPLIBERAT,"Sassenage, Place de la Libération",45.20682,5.66281,,1,,1
PLREPUBL,GENPLREPUBL,"Gières, Place de la République",45.18209,5.79257,,1,,1
POLESUD,GENPOLESUD,"Grenoble, Polesud - Alpexpo",45.15715,5.73384,,1,,1
POLOTTI,GENPOLOTTI,"Échirolles, Antoine Polotti",45.1486,5.72251,,1,,1
POMAR,GENPOMAR,"Proveysieux, Pomarey Bas",45.28045,5.70961,,1,,1
POMAREY,GENPOMAREY,"Proveysieux, Pomarey",45.28232,5.71079,,1,,1
POMMERAI,GENPOMMERAI,"Varces-Allières-et-Risset, La Pommeraie",45.08765,5.67206,,1,,1
POMPIDOU,GENPOMPIDOU,"Claix, Pompidou",45.11993,5.69255,,1,,1
PONSARD,GENPONSARD,"Grenoble, Ponsard",45.17597,5.7372,,1,,1
PONTCN,GENPONTCN,"Champ-sur-Drac, Pont de Champ",45.0875,5.73031,,1,,1
PONTGENE,GENPONTGENE,"Vif, Le Pont de Genevrey",45.02852,5.65171,,1,,1
PONTMAS,GENPONTMAS,"Vizille, Le Pont du Mas",45.08679,5.78887,,1,,1
PORTAILR,GENPORTAILR,"Saint-Martin-d'Hères, Portail Rouge",45.1814,5.76347,,1,,1
PORTGRES,GENPORTGRES,"Saint-Martin-d'Hères, Porte du Grésivaudan",45.18253,5.77665,,1,,1
POSTE,GENPOSTE,"Claix, Poste",45.1211,5.67214,,1,,1
POTIE,GENPOTIE,"Saint-Martin-d'Hères, Potié",45.17088,5.75859,,1,,1
POULAT,GENPOULAT,"Saint-Paul-de-Varces, Le Poulat",45.07444,5.66002,,1,,1
PRAPARIS,GENPRAPARIS,"Sassenage, Praparis Usine",45.22925,5.6497,,1,,1
PRAPAROS,GENPRAPAROS,"Noyarey, Praparis - Les Roses",45.23226,5.64503,,1,,1
PREAUCR,GENPREAUCR,"Eybens, Pré au Crêt",45.14405,5.7401,,1,,1
PREBIL,GENPREBIL,"Saint-Georges-de-Commiers, Pré du Bil",45.02466,5.70658,,1,,1
PRECATLA,GENPRECATLA,"Meylan, Pré Catlan",45.23002,5.78733,,1,,1
PREDEAU,GENPREDEAU,"Montbonnot-Saint-Martin, Pré de l'Eau",45.22384,5.81961,,1,,1
PREDIEU,GENPREDIEU,"Saint-Égrève, Fiancey - Prédieu",45.22359,5.68827,,1,,1
PREFLEUR,GENPREFLEUR,"Sassenage, Pré Fleury",45.20183,5.66763,,1,,1
PRELENFR,GENPRELENFR,"Le Gua, Prélenfrey Eglise",45.01693,5.6133,,1,,1
PREMILL,GENPREMILL,"Montbonnot-Saint-Martin, Pré Millet",45.22181,5.81305,,1,,1
PREMOL,GENPREMOL,"Poisat, Cimetière Intercommunal",45.15752,5.76412,,1,,1
PRENOUVE,GENPRENOUVE,"Seyssins, Pré Nouvel",45.15141,5.68039,,1,,1
PREORME,GENPREORME,"Varces-Allières-et-Risset, Pré de l'Orme",45.10964,5.6884,,1,,1
PRESQUIL,GENPRESQUIL,"Grenoble, Oxford",45.20613,5.6994,,1,,1
PRIEURE,GENPRIEURE,"Domène, Le Prieuré",45.20489,5.83576,,1,,1
PRISME,GENPRISME,"Seyssins, Le Prisme",45.16639,5.69055,,1,,1
PROMOSOC,GENPROMOSOC,"Saint-Martin-d'Hères, Les Alpilles",45.18714,5.76958,,1,,1
PROVIDEN,GENPROVIDEN,"Corenc, Providence",45.22111,5.76456,,1,,1
PTCHATEL,GENPTCHATEL,"Veurey-Voroize, Petit Châtelard",45.27608,5.61213,,1,,1
PTCLXMAI,GENPTCLXMAI,"Le Pont-de-Claix, Pont-de-Claix Mairie",45.12288,5.6977,,1,,1
PTROUGE,GENPTROUGE,"Claix, Pont Rouge",45.11832,5.69254,,1,,1
PTTRONCH,GENPTTRONCH,"La Tronche, Petite Tronche",45.20195,5.73416,,1,,1
PTVENCE,GENPTVENCE,"Saint-Égrève, Pont de Vence",45.23009,5.6823,,1,,1
PTVERCOR,GENPTVERCOR,"Fontaine, Pont du Vercors",45.19242,5.69961,,1,,1
PUIS,GENPUIS,"Venon, Les Puis",45.17206,5.81643,,1,,1
QUINZAIN,GENQUINZAIN,"Échirolles, Quinzaine",45.15149,5.70664,,1,,1
RABOT,GENRABOT,"Grenoble, Le Rabot",45.19505,5.72342,,1,,1
RAFOUR,GENRAFOUR,"Fontanil-Cornillon, Rafour",45.24868,5.66688,,1,,1
RAMPE,GENRAMPE,"Échirolles, La Rampe - Centre-Ville",45.14948,5.71818,,1,,1
RAYCHANA,GENRAYCHANA,"Grenoble, Raymond Chanas",45.15968,5.73822,,1,,1
RENECASS,GENRENECASS,"Domène, René Cassin",45.2045,5.84416,,1,,1
REPLAT,GENREPLAT,"Brié-et-Angonnes, Le Replat",45.1209,5.78154,,1,,1
REPOSOIR,GENREPOSOIR,"Saint-Martin-le-Vinoux, Le Reposoir",45.20945,5.71644,,1,,1
REVIREE,GENREVIREE,"Meylan, La Revirée",45.20733,5.76796,,1,,1
REVIREES,GENREVIREES,"Meylan, Revirée - Sayettes",45.21205,5.76638,,1,,1
REYNOARD,GENREYNOARD,"Grenoble, Reynoard",45.16398,5.72863,,1,,1
RHINDANU,GENRHINDANU,"Grenoble, Rosa Parks",45.17497,5.70522,,1,,1
RIGAU,GENRIGAU,"Proveysieux, Garcinière",45.25164,5.69488,,1,,1
RIPAILLE,GENRIPAILLE,"Saint-Martin-le-Vinoux, Ripaillère",45.22682,5.72078,,1,,1
RISSET,GENRISSET,"Varces-Allières-et-Risset, Risset",45.10724,5.67309,,1,,1
RIVETS,GENRIVETS,"Murianette, Les Rivets",45.19482,5.82455,,1,,1
RIVOIRE,GENRIVOIRE,"Sassenage, Rivoire de la Dame",45.21493,5.65169,,1,,1
ROBESPIE,GENROBESPIE,"Poisat, Robespierre",45.15985,5.75718,,1,,1
ROCH,GENROCH,"Saint-Martin-d'Uriage, Le Rocharey",45.17497,5.87056,,1,,1
ROCHEFOR,GENROCHEFOR,"Varces-Allières-et-Risset, Le Rochefort",45.10164,5.68534,,1,,1
ROCHEPLA,GENROCHEPLA,"Saint-Martin-d'Hères, Rocheplane",45.1783,5.76236,,1,,1
ROCHEPLE,GENROCHEPLE,"Saint-Égrève, Rochepleine",45.24459,5.67517,,1,,1
ROCHERES,GENROCHERES,"Saint-Égrève, Rocher d'Escalade",45.2432,5.67907,,1,,1
ROLLANDI,GENROLLANDI,"Sassenage, La Rollandière",45.21501,5.66112,,1,,1
ROMANCHE,GENROMANCHE,"Champ-sur-Drac, Espace Navarre",45.08662,5.73067,,1,,1
RONDEAU,GENRONDEAU,"Grenoble, Marielle Franco - Rondeau",45.16072,5.70965,,1,,1
RONDEURO,GENRONDEURO,"Varces-Allières-et-Risset, Rond-Point de l'Europe",45.09312,5.68375,,1,,1
RONS,GENRONS,"Saint-Martin-d'Uriage, Le Rossin",45.17026,5.85419,,1,,1
RONZ,GENRONZ,"Saint-Martin-d'Uriage, La Ronzière",45.16881,5.84064,,1,,1
RONZY,GENRONZY,"Claix, La Ronzy",45.12083,5.67593,,1,,1
ROSERAIE,GENROSERAIE,"Gières, Roseraie",45.17901,5.78101,,1,,1
ROSES,GENROSES,"Claix, Les Roses",45.11791,5.66739,,1,,1
ROSSETS,GENROSSETS,"Le Gua, Les Rossets",45.01657,5.64083,,1,,1
ROUDIER,GENROUDIER,"Quaix-en-Chartreuse, Roudier",45.24812,5.73164,,1,,1
ROUSTEGR,GENROUSTEGR,"Quaix-en-Chartreuse, Route de Saint-Egrève",45.25488,5.7048,,1,,1
ROZATIER,GENROZATIER,"Varces-Allières-et-Risset, Rozatière",45.08706,5.70241,,1,,1
RUEALPES,GENRUEALPES,"Fontaine, Rue des Alpes",45.19799,5.68087,,1,,1
RUEDELAL,GENRUEDELAL,"Fontaine, Rue de la Liberté",45.19109,5.69641,,1,,1
RUEPAIX,GENRUEPAIX,"Fontaine, Curie - Vercors",45.19235,5.69252,,1,,1
RUEPASTE,GENRUEPASTE,"Fontaine, Rue Pasteur",45.19421,5.69473,,1,,1
RUIRES,GENRUIRES,"Eybens, Les Ruires-Boétie",45.14932,5.74122,,1,,1
RUISSET,GENRUISSET,"Noyarey, Le Ruisset",45.25007,5.63156,,1,,1
SABLONS,GENSABLONS,"La Tronche, Sablons",45.19647,5.75206,,1,,1
SACRISTI,GENSACRISTI,"Vif, Rue de la Sacristie",45.07081,5.69538,,1,,1
SAILLANT,GENSAILLANT,"Le Gua, Les Saillants",45.02463,5.6458,,1,,1
SAINTEYN,GENSAINTEYN,"Le Sappey-en-Chartreuse, Saint-Eynard",45.24926,5.76534,,1,,1
SAINTMIC,GENSAINTMIC,"Claix, Saint-Michel",45.11203,5.68452,,1,,1
SAINTPE,GENSAINTPE,"Saint-Georges-de-Commiers, Saint-Pierre Eglise",45.02819,5.70607,,1,,1
SALENGRO,GENSALENGRO,"Grenoble, Salengro",45.17566,5.70887,,1,,1
SALLEZOL,GENSALLEZOL,"Champ-sur-Drac, Zola - Mairie",45.08261,5.73371,,1,,1
SARCENA,GENSARCENA,"Sarcenas, Sarcenas Le Village",45.2734,5.75861,,1,,1
SARCROZ,GENSARCROZ,"Sarcenas, Pont du Croz",45.27669,5.75747,,1,,1
SAULES,GENSAULES,"Eybens, Les Saules",45.16188,5.74176,,1,,1
SAVEUIL,GENSAVEUIL,"Fontaine, Saveuil",45.19239,5.69687,,1,,1
SAVOY,GENSAVOY,"Proveysieux, Savoyardière",45.27833,5.70833,,1,,1
SEYHDV,GENSEYHDV,"Seyssinet-Pariset, Seyssinet-Pariset Hôtel de Ville",45.18032,5.69707,,1,,1
SEYSROND,GENSEYSROND,"Seyssins, Seyssins Rondeau",45.16035,5.69373,,1,,1
SEYSVILL,GENSEYSVILL,"Seyssinet-Pariset, Seyssins Village",45.15628,5.68128,,1,,1
SEYVILLA,GENSEYVILLA,"Seyssins, Seyssins Village",45.15628,5.68128,,1,,1
SIMIA,GENSIMIA,"Jarrie, Les Simianes",45.11612,5.75778,,1,,1
SMHVILLA,GENSMHVILLA,"Saint-Martin-d'Hères, Saint-Martin-d'Hères Village",45.16512,5.76552,,1,,1
SMVINOUX,GENSMVINOUX,"Saint-Martin-le-Vinoux, Place du Village",45.20387,5.71634,,1,,1
SNETVILA,GENSNETVILA,"Seyssinet-Pariset, Seyssinet Village",45.17052,5.68074,,1,,1
SNU,GENSNU,"Saint-Martin-d'Uriage, Saint Nizier d'Uriage",45.16418,5.83474,,1,,1
SONNANT,GENSONNANT,"Gières, Le Sonnant",45.18161,5.78271,,1,,1
SOUSFRET,GENSOUSFRET,"Quaix-en-Chartreuse, Sous La Frette",45.25036,5.73532,,1,,1
SOUSPERO,GENSOUSPERO,"Venon, Sous-Perroud",45.1703,5.81077,,1,,1
SOUVE,GENSOUVE,"Brié-et-Angonnes, Souveyron",45.13061,5.77825,,1,,1
SOUVEVI,GENSOUVEVI,"Brié-et-Angonnes, Le Coin",45.12799,5.78511,,1,,1
SPAULMAI,GENSPAULMAI,"Saint-Paul-de-Varces, Saint-Paul-de-Varces Place",45.07167,5.6426,,1,,1
STADE,GENSTADE,"Échirolles, Stade",45.1435,5.72943,,1,,1
STADEPER,GENSTADEPER,"Champ-sur-Drac, Stade Perrouault",45.07559,5.72718,,1,,1
STADLESD,GENSTADLESD,"Grenoble, Stade Lesdiguières",45.16429,5.71097,,1,,1
STALALLI,GENSTALALLI,"Grenoble, Stalingrad-Alliés",45.17172,5.72435,,1,,1
STAUGUST,GENSTAUGUST,"Grenoble, Saint-Augustin",45.17827,5.74591,,1,,1
STBARTHE,GENSTBARTHE,"Le Gua, Saint-Barthélémy",44.99986,5.62946,,1,,1
STBRUNNC,GENSTBRUNNC,"Grenoble, Chorier - Saint-Bruno",45.18592,5.71403,,1,,1
STBRUNO,GENSTBRUNO,"Grenoble, Saint-Bruno",45.18833,5.71351,,1,,1
STEANGE,GENSTEANGE,"Varces-Allières-et-Risset, Saint-Ange",45.09683,5.68367,,1,,1
STECLAIR,GENSTECLAIR,"Grenoble, Sainte-Claire - Les Halles",45.19146,5.73067,,1,,1
STEGVGAR,GENSTEGVGAR,"Saint-Égrève, Saint Egrève Gare",45.23531,5.67151,,1,,1
STEND,GENSTEND,"Varces-Allières-et-Risset, Stendhal",45.0871,5.68586,,1,,1
STEYNARD,GENSTEYNARD,"Fontaine, Saint-Eynard",45.20113,5.69021,,1,,1
STGCOMMI,GENSTGCOMMI,"Saint-Georges-de-Commiers, St-G.-de-Commiers Gare",45.04363,5.70174,,1,,1
STGERMAI,GENSTGERMAI,"La Tronche, Saint-Germain",45.21015,5.74408,,1,,1
STJBOSCO,GENSTJBOSCO,"Meylan, Saint-Jean Bosco",45.21282,5.77305,,1,,1
STLAUREN,GENSTLAUREN,"Grenoble, Saint-Laurent",45.19802,5.73257,,1,,1
STMARTIN,GENSTMARTIN,"Saint-Martin-d'Uriage, Route de Saint Martin",45.13926,5.82718,,1,,1
STMARTVI,GENSTMARTVI,"Saint-Martin-le-Vinoux, St M.le Vinoux - Mairie",45.20785,5.70653,,1,,1
STMURY,GENSTMURY,"Meylan, Saint-Mury",45.21947,5.78613,,1,,1
STROCH,GENSTROCH,"Grenoble, Saint-Roch",45.19129,5.73851,,1,,1
STVICTOR,GENSTVICTOR,"Meylan, Saint-Victor",45.2286,5.78928,,1,,1
SURIEUX,GENSURIEUX,"Échirolles, Surieux",45.15846,5.72192,,1,,1
TAILLEES,GENTAILLEES,"Saint-Martin-d'Hères, Les Taillées - Universités",45.19215,5.75784,,1,,1
TAILLIS,GENTAILLIS,"Claix, Les Taillis",45.11315,5.66577,,1,,1
TAVER,GENTAVER,"Brié-et-Angonnes, Tavernolles",45.13628,5.77037,,1,,1
TEISSEIR,GENTEISSEIR,"Grenoble, Teisseire",45.17081,5.74016,,1,,1
TERRATS,GENTERRATS,"Gières, Les Terrats",45.16914,5.79285,,1,,1
TERRAY,GENTERRAY,"Meylan, Lionel Terray",45.20999,5.76693,,1,,1
THEVE,GENTHEVE,"Jarrie, Les Thévenets",45.11571,5.75102,,1,,1
TRAVERS,GENTRAVERS,"Vaulnaveys-le-Bas, Les Travers",45.09132,5.79162,,1,,1
TREFFORI,GENTREFFORI,"Sassenage, Trefforine",45.20446,5.66499,,1,,1
TREILLE,GENTREILLE,"Meylan, La Treille",45.22639,5.79109,,1,,1
TRONCHOP,GENTRONCHOP,"La Tronche, La Tronche Hôpital",45.20123,5.74184,,1,,1
TUILERIE,GENTUILERIE,"Seyssins, Tuilerie",45.16906,5.69215,,1,,1
URIAGE,GENURIAGE,"Saint-Martin-d'Uriage, Uriage Gare",45.14395,5.82915,,1,,1
URIOL,GENURIOL,"Vif, Uriol",45.06063,5.66856,,1,,1
USINENOR,GENUSINENOR,"Vif, L'Usine Nord",45.03,5.65281,,1,,1
VALALLIE,GENVALALLIE,"Claix, Val d'Allières",45.1069,5.66532,,1,,1
VALET,GENVALET,"Saint-Martin-d'Uriage, Les Valets",45.16749,5.85808,,1,,1
VALEYBEN,GENVALEYBEN,"Eybens, Val d'Eybens",45.15905,5.74558,,1,,1
VALLCATA,GENVALLCATA,"Grenoble, Vallier - Catane",45.18002,5.70558,,1,,1
VALLIBE,GENVALLIBE,"Grenoble, Vallier - Libération",45.18013,5.71608,,1,,1
VALLJAUR,GENVALLJAUR,"Grenoble, Vallier - Libération",45.18019,5.71581,,1,,1
VALMY,GENVALMY,"Grenoble, Flandrin - Valmy",45.18719,5.7448,,1,,1
VARCESRE,GENVARCESRE,"Varces-Allières-et-Risset, République",45.08635,5.68298,,1,,1
VASSIEUX,GENVASSIEUX,"Échirolles, Vassieux",45.14303,5.70002,,1,,1
VAULBAS,GENVAULBAS,"Vaulnaveys-le-Bas, Vaulnaveys-Le-Bas Le Village",45.10549,5.80042,,1,,1
VAULHAUT,GENVAULHAUT,"Vaulnaveys-le-Haut, Vaulnaveys-Le-Haut Le Village",45.11934,5.81099,,1,,1
VENARIA,GENVENARIA,"Vizille, Vénaria",45.08187,5.77163,,1,,1
VENCEECO,GENVENCEECO,"Saint-Égrève, Vence EcoParc",45.22773,5.66846,,1,,1
VENONMAI,GENVENONMAI,"Venon, Venon Mairie",45.17165,5.80482,,1,,1
VERCORS,GENVERCORS,"La Tronche, Vercors",45.20065,5.75103,,1,,1
VERDERET,GENVERDERET,"Eybens, Le Verderet",45.14694,5.75428,,1,,1
VERDUN,GENVERDUN,"Grenoble, Verdun - Préfecture",45.1883,5.73144,,1,,1
VERLAINE,GENVERLAINE,"Grenoble, Verlaine",45.16193,5.71613,,1,,1
VERNES,GENVERNES,"Domène, Les Vernes",45.20713,5.83398,,1,,1
VERNET,GENVERNET,"Jarrie, Le Vernet Croix",45.09617,5.73978,,1,,1
VERT,GENVERT,"Claix, Vert Sapin",45.12558,5.67844,,1,,1
VEUREYEG,GENVEUREYEG,"Veurey-Voroize, Veurey Eglise",45.27225,5.61564,,1,,1
VEUREYMA,GENVEUREYMA,"Veurey-Voroize, Veurey Mairie",45.27292,5.61302,,1,,1
VEUREYRI,GENVEUREYRI,"Veurey-Voroize, La Rive",45.26981,5.61825,,1,,1
VEYRET,GENVEYRET,"Grenoble, Veyret",45.19483,5.7248,,1,,1
VICTHUGO,GENVICTHUGO,"Grenoble, Victor Hugo",45.18938,5.72499,,1,,1
VIEUXDON,GENVIEUXDON,"Sassenage, Vieux donjon",45.21138,5.64977,,1,,1
VIFGARE,GENVIFGARE,"Vif, Vif Gare",45.04824,5.68573,,1,,1
VIFGEND,GENVIFGEND,"Vif, Rivalta",45.05301,5.67655,,1,,1
VIFMAIRI,GENVIFMAIRI,"Vif, Vif Mairie",45.05584,5.66897,,1,,1
VIGNATE,GENVIGNATE,"Gières, Vignate",45.18923,5.77806,,1,,1
VIGNES,GENVIGNES,"Bresson, Les Vignes",45.13809,5.74574,,1,,1
VIGNY,GENVIGNY,"Grenoble, Vigny",45.16744,5.72338,,1,,1
VILLAGE,GENVILLAGE,"Échirolles, Le Village",45.14133,5.72057,,1,,1
VILLOLYM,GENVILLOLYM,"Grenoble, Village Olympique",45.16411,5.72404,,1,,1
VISANCOU,GENVISANCOU,"Saint-Égrève, Visancourt",45.23317,5.68606,,1,,1
VOHRIGEN,GENVOHRIGEN,"Vizille, Parc Vöhringen",45.07888,5.76947,,1,,1
XAVJOUVI,GENXAVJOUVI,"Grenoble, Xavier Jouvin",45.1956,5.73009,,1,,1
ZASPEYRE,GENZASPEYRE,"Vif, Z.A. des Speyres",45.0569,5.68184,,1,,1
ZELLAMEL,GENZELLAMEL,"Saint-Martin-d'Hères, Zella Mehlis",45.16707,5.75354,,1,,1
ZILES,GENZILES,"Le Pont-de-Claix, ZI des Iles",45.13853,5.69449,,1,,1
